Place,Latitude,Longitude
Galwan,54.137017900000004,19.455836309459464
kiang,32.7002037,78.4555471
Beas,31.6181829453933,75.40692792281901
Pipiting,33.4804266,76.8901026
cen­,22.281937749999997,114.15807645569366
Bogle,51.319603900000004,0.7931752545759356
UK,6.3110548,20.5447525
Tibet Chang-pa,30.42809805380556,97.19518420704392
Dogra,24.53493385,77.67030092978337
Hindi,40.199532,40.0657077
Sani,43.9458623,12.458306
Drew,33.5716907,-91.7160969
Sikkim,27.601029,88.45413638680145
Virupaksha,15.3351754,76.45877771562229
Zhung,29.1857954,88.9364765
Crook,44.1460291,-120.3839476
US,39.7837304,-100.445882
Mahakala,27.5125358,85.5435456
G.M.,49.27135391042461,-122.57493268894424
Ramsay,51.037727,-114.041219
Mecca,21.420847,39.826869
Sinkiang,42.4804953,85.4633464
Aberdeen,57.1482429,-2.0928095
Leh Autonomous,41.6291231,41.6009209
Byzantium,41.006381,28.9758715
Taru,-3.7333,39.15
The Kingdom,43.1139558,-76.3960453
Tokyo,35.6768601,139.7638947
Mustang,35.384227,-97.7244813
Umasi,33.4277792,76.5777862
Vikramasila,25.3260344,87.2732594
Afghanistan,33.7680065,66.2385139
Briton,-1.2626392499999999,116.83905895
Bodhisattva,52.5228456,13.2330426
Mountain,48.6843951,-97.8652374
Mang,50.1106444,8.6820917
Norberg,60.0864052,15.9533232
Pallas,60.9888138,25.625542
Tsaparang,31.46547425,79.66984194807225
Dhauladhar,32.24219243028854,76.49233058869687
kyang,28.30150245,83.67657842927449
dantan,21.9305544,87.284002
Himalayan Kingdom,27.7385098,85.3234856
Drepung,29.6767779,91.0469304
WESTERN TIBET,47.9803984,18.12962886250374
Pashm,29.6004018,52.4701022
Sanskrit,55.7472693,37.5885791
Hong Kong,22.350627,114.1849161
Nepal,28.3780464,83.9999901
"The Hague,",52.07494555,4.2696802205364515
Fatu-la,7.946530565968351,-11.766599091460192
"New 
Delhi",28.64308585,77.21926705734865
Jammu,32.7185614,74.8580917
Geneva,46.2017559,6.1466014
serais,48.3985515,-0.3298584
Fatu,6.6129281,-10.1590364
Ludhiana,30.9090157,75.851601
Gilgit,35.9208102,74.314044
Mahayana,10.8508011,76.2711816
Tartary,44.803584900000004,4.615097228548244
Lotsawa,31.5319662,78.2516642
Panikhar,34.1186738,75.9467562
Manipur,24.7208818,93.9229386
Shina,35.0000663,104.999955
Taipei,25.0375198,121.5636796
Lynx,38.7731289,-83.4129666
Aghas,35.2330606,23.6808804
Vulpes,41.84603355836172,-78.97293789442809
Rohtang,32.3710034,77.2462692
Khardung,34.398586,77.6568546
Akbar,6.6653464,122.1954435
Sumdah,34.11013867002691,77.1917574726291
Banaras,25.3356491,83.0076292
Rajasthan,26.8105777,73.7684549
Stakna,34.0014386,77.6794412
Thor,42.6899,-94.0495254
espe­,65.8752778,20.15
Suraj,53.0131501,32.3931633
Jagir,-7.302567,112.7376028
Nineteenth,50.813878599999995,7.104919200000003
Kashm,14.9665651,35.9056724
Kabul,34.5266431,69.1849082
Alchi,34.2236334,77.1740631
Ptolemy,-68.5494632,-65.9516146
Yonam,36.94925105,127.1560864120124
Andrade,32.7248173,-114.724861
jagir,-7.302567,112.7376028
Tso-kar,33.311916,77.97988907423644
Hindustan,22.3511148,78.6677428
Genoud,46.126045,5.2695322
Paris,48.8588897,2.3200410217200766
Hanle,32.7714828,78.9832056
Zanskari,33.25267855,76.7133119544886
Snellgrove,30.35798552801387,-81.80474118804696
Building,6.8097314,-1.63623795
north-west,-26.1347819,25.6546729
Delhi,28.6273928,77.1716954
Boundary,48.7846346,-116.4339511
Jersey,49.2214561,-2.1358386
Pang,-24.7761086,134.755
Khurbathang,34.5347574,76.1488309
Independence,39.0924792,-94.4137923
H.H.,29.495678993105045,-103.3719124996278
Kalimpong,27.0702869,88.4723676
Iraq,33.0955793,44.1749775
Zingzingbar,32.7918821,77.3184229
Ri-dzong,27.7236427,89.1529621
Jahangir,31.6994222,74.9558902
Akshobya,52.9707609,-1.1572761656393684
Gurkhas,51.426242,-0.0511268
Ippolito,46.0701678,13.4340239
Lamayuru,34.2827066,76.773959
Goldstein,50.9061479,14.2889776
eleventh,35.76526615,51.430968
Mexico City N,19.48389795,-99.14101156653649
Kathmandu,27.708317,85.3205817
Chigtan,34.4701706,76.5101667
Kotan,39.1058044,37.8086704
China,35.0000663,104.999955
Shridhar,20.54836375,76.45039210417701
nirvana,-23.537406,-46.0265136
Western Tibet,47.9803984,18.12962886250374
Singh,-0.1493617,36.1338982
UP,46.288203949999996,-87.04463428726743
Buddhist Ladakh,34.10478845,77.59876518699969
Gautama,43.6722192,-79.322787
Tibetan,31.8280766,87.4064278
Kermit Roosevelt,34.0011955,-103.5927365
Orig,6.10149,-72.8664669
Karzok,32.9661318,78.2629948
Turkistan,41.3775217,69.2960151
Khoksar,22.67248215,77.59054188582235
Lhasa,29.6542054,91.1173015
Bodhisattvas,22.581065600000002,114.1772520349293
Desideri,43.877549,10.7811864
Ganga,25.7240512,84.1137187
Edinburgh,55.9533456,-3.1883749
Hussain,52.469479,-1.8585089
Srinagar,34.0747444,74.8204443
Krishna,16.21277,81.03069575082347
Troupes,50.572145,4.4510042
Arabia,22.3742506,49.477089111818884
Urdu,17.2488259,80.1421979
Lungnak,34.183931418225626,78.79799786680609
Peking,40.190632,116.412144
Tibetan Kingdom,28.2076085,83.9599888
Karachi,24.8546842,67.0207055
Chakra,13.698776,74.8186979
Skardu,35.2863724,75.6400746
Samarkand,39.6550017,66.9756954
Pheran,45.7774551,3.0819427
Bogdang,34.8052058,77.0396841
Yamantaka,27.6744995,85.3243351
Yuljuk,34.1559143,75.9513509
ir­,32.6475314,54.5643516
Alternative Village,40.99342695,-73.79677918758217
Zorawar,32.6873536,79.4661749
Taklakot,30.629075,81.3456026
Chenrezig,-26.74109405,152.90497629746602
Kargil,33.802819,76.4730095688732
Baltistan,51.8910839,-0.4024055
Nun-Kun,34.0139272,76.0566116
R.S.,52.325880850000004,9.820662424999984
Adil,39.1057404,27.6169945
Khotan,41.1677575,80.2582136
Jaschke,51.455597850000004,7.379974786117314
Ladakh,34.0242098,77.2036739
Qinghai,35.40709525,95.95211573241954
Kangra,32.0768665,76.29858720759783
Old Kingdom,-37.82633985,145.10220619378254
Nubra,34.59417158566643,77.58888628176513
Florence,43.7697955,11.2556404
Portions,48.9240467,6.8036592
Continent,18.4452798,-73.3071685
Russia,64.6863136,97.7453061
Gansu,38.0000001,101.9999999
Madanjeet,12.03100225,79.85861077095318
Drang-drung,33.75853275,76.28802232629147
Salwar,31.496933955202884,74.32358403166305
Toronto,43.6534817,-79.3839347
Karsha,25.6566368,56.2672142
G.S. Rawat,-6.2948552499999995,106.79560534897317
New Delhi,28.64308585,77.21926705734865
London,51.5074456,-0.1277653
Hoshiarpur,31.60929415,75.84597544153354
Igu,-25.5930616,-54.49060873125
Himalaya,27.985688,86.9163367
pp.,28.5143487,80.1512946
Tsetan,34.1748622,77.5814094
Matho,9.1636675,126.1734831
Tshogs,29.3785779,88.0033299
Ribbach,50.12994031181079,6.136717208672207
Sengge,28.1923173,91.0089402
Buddhist Villages,22.205131450000003,114.02610866212174
Leh,34.1642029,77.5848133
Skara,58.3846075,13.4397675
Shayok,34.1780836,78.1399135
Ven,48.2083537,16.3725042
Keylang,32.5713398,77.0345199
Rome,41.8933203,12.4829321
India,22.3511148,78.6677428
Dresden,51.0493286,13.7381437
Pakistan,30.3308401,71.247499
Seabuckthorn,47.5557681,101.1144426
Mulbekh,34.3794737,76.3689346
Bihar,25.6440845,85.906508
Jamal,25.0790838,80.61603383882289
Sonamarg,34.302387,75.2965551
Abidjan,5.320357,-4.016107
Chuk,-1.9575377,30.061119804866657
Bakula,4.5957429,18.9915008
Maharaja,19.09013755,72.86382231092827
Inde­,22.3511148,78.6677428
Arghon,30.03740935,31.243388850000002
Younghusband,-34.8680494,139.4689948
Kashgar,39.4665981,75.9900135
New York,40.7127281,-74.0060152
Lahul,32.539182499999995,77.19833433579925
Osmaston,52.9917573,-1.7034403
Kuala Lumpur Madras M,3.1429316,101.6973694
Hindus­,52.3488629,20.94646
DC,4.2834715,-74.17536060737828
Karakash,37.2714124,79.7377057
Smith,32.3402898,-95.2563971
Patseo,32.75711,77.25998
Shingo,40.4655556,141.1735318
Shey,34.0713377,77.6397177
Sakyamuni,39.56526435,113.18199285
Hervey,46.8534546,-72.4678121
Tilonia,26.6550507,74.9387735
Rudok,33.4160651,79.6433118
Aurangzeb,32.6754815,71.0564976
Hodge,34.8155403,-117.1933779
Francois,46.3728781,-0.3458596
mod­,22.807844799999998,74.51877868425242
Deasy,54.749341061417894,-126.10017306964025
kurta,11.7569,9.11372
Losar,34.7057923,74.6509942
Sera,29.69785245,91.13289616420656
Padum,33.4691405,76.8781759
rayana,30.6331824,78.7227211
France,46.603354,1.8883335
Naropa,40.01407945,-105.26695943762093
New Temple,53.6788914,-2.5503033
Carovana,43.719686249999995,10.400398048187082
Chushot,34.0753403,77.6025178
Oliveira,-20.6971953,-44.8273969
Mongolia,46.8250388,103.8499736
Lahore,31.5656822,74.3141829
Lt.-Gen,38.3583121,-81.64424219328289
Kushan,36.0579761,59.1428692
chomos,11.2542813,-85.8715603
Tegur,15.5474225,74.8375382
Suru,59.42139875,25.772885104214925
Siliguri,26.7164127,88.4309916
Nestorian,35.12525515,33.93869138112146
Chuba,23.0131338,-80.8328748
Lucknow,26.8381,80.9346001
Filippi,45.3134565,13.7494853
Dharamsala,32.2143039,76.3196717
Kanji,34.2318874,76.6056774
Cambridge,52.2055314,0.1186637
Gemur,32.6118243,77.146495
north­,13.45911,-2.2496367403016495
Utpala,27.7244291,85.3623216
Sarchu,32.8155072,77.5325542
Norbu,32.1600647,77.3824
Kash­,42.78259315,-71.51763052967607
Yarkand,38.3446426,77.033982
Kailash,27.6098398,84.9529717935093
Parkachik,34.0902009,75.9912068
Hedin,48.931871,6.1260474
Zangla,33.6585872,76.9914578
Britain,54.3151594,-1.9181532111487878
England,52.5310214,-1.2649062
the Republic of India,26.4388713,84.394069
Indus,33.940340716090155,72.34765680910543
Bhutan,27.549511,90.5119273
Winter Route,42.695843218277425,-73.66657935657992
Kingdom,54.7023545,-3.2765753
Pashmina,59.324775,18.068465
Almeida,40.7260772,-6.9065743
Tigur,0.1811452,110.9610344
Transhim,56.261405800000006,43.65820163156665
Irby,47.3593127,-118.8511133
Thibet,31.669202499999997,87.47322500528882
Rangdum,34.0361946,76.3719955
Mount Kailash,31.0678394,81.3119303
Jotunheim,58.8314059,14.4187328
Schlagintweit,35.1220909,74.5319757
preten­,53.3216924,10.9065304
Ladakhi,32.3996631,77.0752333
Karakoram,35.5331288,76.44557211396196
Trags-,-33.23510422783631,151.56548813190614
Darcha,32.6740862,77.2159472
Kulu,39.0370572,33.028629
Ladak,34.0242098,77.2036739
Tibet,31.669202499999997,87.47322500528882
Lingshed,33.9038386,76.8246514
Stok,34.0649307,77.5479632
Harrods,51.4992104,-0.16298931529660202
Compassion,43.3040606,5.4112246
Chong,7.033333,10.766667
Iran,32.6475314,54.5643516
Potala,29.657567550000003,91.11701878315219
mo-mo,51.0661133,13.7539032
Norman,35.2225717,-97.4394816
Tingmosgang,34.3244398,76.98914
Migratory,51.3500757,-80.44908634666473
"San 
Francisco",37.7792588,-122.4193286
Palchan,32.3095152,77.1758334
south-east,-24.62994925,26.045475779882622
Aligarh,27.8761073,78.13581531245276
Athens,33.9597677,-83.376398
Ceylon,43.5335672,-94.6316462
