<placenames>
 <placename id="rb3" name="India">
  <place rank="1" score="3.406706012" scaled_type="1" scaled_pop="1.406706012" scaled_contained_by="0" scaled_contains="0" scaled_near="0" pop="1080264388" cc="IN" in-cc="IN" long="79" lat="22" type="country" gazref="geonames:1269750" name="India" clusteriness="0" scaled_clusteriness="1" clusteriness_rank="1" locality="0" distance-to-known="99999" scaled_known="0"/>
  <place rank="2" score="1.6" scaled_type="0.6" scaled_pop="0" scaled_contained_by="0" scaled_contains="0" scaled_near="0" in-cc="RS" long="20.08165" lat="45.04816" type="ppl" gazref="geonames:790015" name="Indjija" clusteriness="8.378379056" scaled_clusteriness="1" clusteriness_rank="8" locality="0" distance-to-known="99999" scaled_known="0"/>
  <place rank="3" score="1.6" scaled_type="0.6" scaled_pop="0" scaled_contained_by="0" scaled_contains="0" scaled_near="0" in-cc="US" long="-88.2581" lat="36.33256" type="ppl" gazref="geonames:4050654" name="India" clusteriness="1.405166303" scaled_clusteriness="1" clusteriness_rank="6" locality="0" distance-to-known="99999" scaled_known="0"/>
  <place rank="4" score="1.6" scaled_type="0.6" scaled_pop="0" scaled_contained_by="0" scaled_contains="0" scaled_near="0" in-cc="US" long="-79.11948" lat="40.37646" type="ppl" gazref="geonames:5194768" name="India" clusteriness="0.9774800636" scaled_clusteriness="1" clusteriness_rank="5" locality="0" distance-to-known="99999" scaled_known="0"/>
  <place rank="5" score="1.574779241" scaled_type="0.6" scaled_pop="0" scaled_contained_by="0" scaled_contains="0" scaled_near="0" in-cc="GM" long="-15.75" lat="13.56667" type="ppl" gazref="geonames:2413391" name="India" clusteriness="11.23159714" scaled_clusteriness="0.9747792411" clusteriness_rank="9" locality="0" distance-to-known="99999" scaled_known="0"/>
  <place rank="6" score="1.570619793" scaled_type="0.6" scaled_pop="0" scaled_contained_by="0" scaled_contains="0" scaled_near="0" in-cc="IT" long="12.27855" lat="46.7324" type="ppl" gazref="geonames:3168508" name="Innichen" clusteriness="11.44881174" scaled_clusteriness="0.9706197929" clusteriness_rank="10" locality="0" distance-to-known="99999" scaled_known="0"/>
  <place rank="7" score="1.547009563" scaled_type="0.6" scaled_pop="0" scaled_contained_by="0" scaled_contains="0" scaled_near="0" in-cc="US" long="-89.11116" lat="30.81713" type="ppl" gazref="geonames:4430906" name="India" clusteriness="12.76382599" scaled_clusteriness="0.9470095627" clusteriness_rank="11" locality="0" distance-to-known="99999" scaled_known="0"/>
  <place rank="8" score="1.455092848" scaled_type="0.6" scaled_pop="0" scaled_contained_by="0" scaled_contains="0" scaled_near="0" in-cc="US" long="-96.6161" lat="32.52514" type="ppl" gazref="geonames:4699848" name="India" clusteriness="19.49011063" scaled_clusteriness="0.8550928478" clusteriness_rank="12" locality="0" distance-to-known="99999" scaled_known="0"/>
  <place rank="9" score="1.444375039" scaled_type="0.6" scaled_pop="0" scaled_contained_by="0" scaled_contains="0" scaled_near="0" in-cc="SV" long="-88.81667" lat="13.55" type="ppl" gazref="geonames:3585481" name="India" clusteriness="20.47622636" scaled_clusteriness="0.8443750391" clusteriness_rank="13" locality="0" distance-to-known="99999" scaled_known="0"/>
  <place rank="10" score="1.431050584" scaled_type="0.6" scaled_pop="0" scaled_contained_by="0" scaled_contains="0" scaled_near="0" in-cc="UG" long="33.68333" lat="2.18333" type="ppl" gazref="geonames:233279" name="Idia" clusteriness="21.77202542" scaled_clusteriness="0.8310505837" clusteriness_rank="14" locality="0" distance-to-known="99999" scaled_known="0"/>
  <place rank="11" score="1.4" scaled_type="0.4" scaled_pop="0" scaled_contained_by="0" scaled_contains="0" scaled_near="0" in-cc="IN" long="76.97021" lat="22.20775" type="mtn" gazref="geonames:6269134" name="Southern Asia" clusteriness="5.366432227" scaled_clusteriness="1" clusteriness_rank="7" locality="0" distance-to-known="99999" scaled_known="0"/>
  <place rank="12" score="1.387038056" scaled_type="0.6" scaled_pop="0" scaled_contained_by="0" scaled_contains="0" scaled_near="0" in-cc="AO" long="15.65642" lat="-13.27375" type="ppl" gazref="geonames:12328530" name="Sacaála" clusteriness="26.66391329" scaled_clusteriness="0.7870380558" clusteriness_rank="15" locality="0" distance-to-known="99999" scaled_known="0"/>
  <place rank="13" score="1.383539484" scaled_type="0.6" scaled_pop="0" scaled_contained_by="0" scaled_contains="0" scaled_near="0" in-cc="MD" long="29.3869" lat="47.04618" type="ppl" gazref="geonames:829969" name="India" clusteriness="27.09698881" scaled_clusteriness="0.783539484" clusteriness_rank="16" locality="0" distance-to-known="99999" scaled_known="0"/>
  <place rank="14" score="1.328160558" scaled_type="0.6" scaled_pop="0" scaled_contained_by="0" scaled_contains="0" scaled_near="0" in-cc="MZ" long="36.91806" lat="-16.69639" type="ppl" gazref="geonames:1045266" name="India" clusteriness="34.96865148" scaled_clusteriness="0.7281605577" clusteriness_rank="18" locality="0" distance-to-known="99999" scaled_known="0"/>
  <place rank="15" score="1.2" scaled_type="0.2" scaled_pop="0" scaled_contained_by="0" scaled_contains="0" scaled_near="0" in-cc="SY" long="36.27763" lat="33.51869" type="fac" gazref="geonames:8373794" name="Al Hind" clusteriness="0.02768099251" scaled_clusteriness="1" clusteriness_rank="4" locality="0" distance-to-known="99999" scaled_known="0"/>
  <place rank="16" score="1.2" scaled_type="0.2" scaled_pop="0" scaled_contained_by="0" scaled_contains="0" scaled_near="0" in-cc="AF" long="68.30389" lat="34.79944" type="fac" gazref="geonames:1455460" name="India" clusteriness="0" scaled_clusteriness="1" clusteriness_rank="2" locality="0" distance-to-known="99999" scaled_known="0"/>
  <place rank="17" score="1.011207888" scaled_type="0.6" scaled_pop="0" scaled_contained_by="0" scaled_contains="0" scaled_near="0" in-cc="BR" long="-41.55" lat="-15.9" type="ppl" gazref="geonames:3461295" name="Índia" clusteriness="150.5165394" scaled_clusteriness="0.4112078876" clusteriness_rank="20" locality="0" distance-to-known="99999" scaled_known="0"/>
  <place rank="18" score="1" scaled_type="0" scaled_pop="0" scaled_contained_by="0" scaled_contains="0" scaled_near="0" in-cc="PH" long="120.97849" lat="14.32778" type="road" gazref="geonames:8610431" name="India" clusteriness="0.02184676449" scaled_clusteriness="1" clusteriness_rank="3" locality="0" distance-to-known="99999" scaled_known="0"/>
  <place rank="19" score="0.9512310006" scaled_type="0.2" scaled_pop="0" scaled_contained_by="0" scaled_contains="0" scaled_near="0" in-cc="ZA" long="28.16039" lat="-26.21891" type="fac" gazref="geonames:994820" name="India" clusteriness="31.4440153" scaled_clusteriness="0.7512310006" clusteriness_rank="17" locality="0" distance-to-known="99999" scaled_known="0"/>
  <place rank="20" score="0.7391384131" scaled_type="0.2" scaled_pop="0" scaled_contained_by="0" scaled_contains="0" scaled_near="0" in-cc="CL" long="-69.91597" lat="-27.1438" type="fac" gazref="geonames:3887266" name="India" clusteriness="83.50705614" scaled_clusteriness="0.5391384131" clusteriness_rank="19" locality="0" distance-to-known="99999" scaled_known="0"/>
 </placename>
 <placename id="rb5" name="North India" altname="India">
  <place rank="1" score="2" scaled_type="1" scaled_pop="0" scaled_contained_by="0" scaled_contains="0" scaled_near="0" in-cc="IN" long="79" lat="22" type="country" gazref="geonames:1269750" name="India" clusteriness="0" scaled_clusteriness="1" clusteriness_rank="1" locality="0" distance-to-known="99999" scaled_known="0"/>
  <place rank="2" score="1.6" scaled_type="0.6" scaled_pop="0" scaled_contained_by="0" scaled_contains="0" scaled_near="0" in-cc="US" long="-88.2581" lat="36.33256" type="ppl" gazref="geonames:4050654" name="India" clusteriness="1.405166303" scaled_clusteriness="1" clusteriness_rank="6" locality="0" distance-to-known="99999" scaled_known="0"/>
  <place rank="3" score="1.6" scaled_type="0.6" scaled_pop="0" scaled_contained_by="0" scaled_contains="0" scaled_near="0" in-cc="US" long="-79.11948" lat="40.37646" type="ppl" gazref="geonames:5194768" name="India" clusteriness="0.9774800636" scaled_clusteriness="1" clusteriness_rank="5" locality="0" distance-to-known="99999" scaled_known="0"/>
  <place rank="4" score="1.6" scaled_type="0.6" scaled_pop="0" scaled_contained_by="0" scaled_contains="0" scaled_near="0" in-cc="RS" long="20.08165" lat="45.04816" type="ppl" gazref="geonames:790015" name="Indjija" clusteriness="8.378379056" scaled_clusteriness="1" clusteriness_rank="8" locality="0" distance-to-known="99999" scaled_known="0"/>
  <place rank="5" score="1.574779241" scaled_type="0.6" scaled_pop="0" scaled_contained_by="0" scaled_contains="0" scaled_near="0" in-cc="GM" long="-15.75" lat="13.56667" type="ppl" gazref="geonames:2413391" name="India" clusteriness="11.23159714" scaled_clusteriness="0.9747792411" clusteriness_rank="9" locality="0" distance-to-known="99999" scaled_known="0"/>
  <place rank="6" score="1.570619793" scaled_type="0.6" scaled_pop="0" scaled_contained_by="0" scaled_contains="0" scaled_near="0" in-cc="IT" long="12.27855" lat="46.7324" type="ppl" gazref="geonames:3168508" name="Innichen" clusteriness="11.44881174" scaled_clusteriness="0.9706197929" clusteriness_rank="10" locality="0" distance-to-known="99999" scaled_known="0"/>
  <place rank="7" score="1.547009563" scaled_type="0.6" scaled_pop="0" scaled_contained_by="0" scaled_contains="0" scaled_near="0" in-cc="US" long="-89.11116" lat="30.81713" type="ppl" gazref="geonames:4430906" name="India" clusteriness="12.76382599" scaled_clusteriness="0.9470095627" clusteriness_rank="11" locality="0" distance-to-known="99999" scaled_known="0"/>
  <place rank="8" score="1.455092848" scaled_type="0.6" scaled_pop="0" scaled_contained_by="0" scaled_contains="0" scaled_near="0" in-cc="US" long="-96.6161" lat="32.52514" type="ppl" gazref="geonames:4699848" name="India" clusteriness="19.49011063" scaled_clusteriness="0.8550928478" clusteriness_rank="12" locality="0" distance-to-known="99999" scaled_known="0"/>
  <place rank="9" score="1.444375039" scaled_type="0.6" scaled_pop="0" scaled_contained_by="0" scaled_contains="0" scaled_near="0" in-cc="SV" long="-88.81667" lat="13.55" type="ppl" gazref="geonames:3585481" name="India" clusteriness="20.47622636" scaled_clusteriness="0.8443750391" clusteriness_rank="13" locality="0" distance-to-known="99999" scaled_known="0"/>
  <place rank="10" score="1.431050584" scaled_type="0.6" scaled_pop="0" scaled_contained_by="0" scaled_contains="0" scaled_near="0" in-cc="UG" long="33.68333" lat="2.18333" type="ppl" gazref="geonames:233279" name="Idia" clusteriness="21.77202542" scaled_clusteriness="0.8310505837" clusteriness_rank="14" locality="0" distance-to-known="99999" scaled_known="0"/>
  <place rank="11" score="1.4" scaled_type="0.4" scaled_pop="0" scaled_contained_by="0" scaled_contains="0" scaled_near="0" in-cc="IN" long="76.97021" lat="22.20775" type="mtn" gazref="geonames:6269134" name="Southern Asia" clusteriness="5.366432227" scaled_clusteriness="1" clusteriness_rank="7" locality="0" distance-to-known="99999" scaled_known="0"/>
  <place rank="12" score="1.387038056" scaled_type="0.6" scaled_pop="0" scaled_contained_by="0" scaled_contains="0" scaled_near="0" in-cc="AO" long="15.65642" lat="-13.27375" type="ppl" gazref="geonames:12328530" name="Sacaála" clusteriness="26.66391329" scaled_clusteriness="0.7870380558" clusteriness_rank="15" locality="0" distance-to-known="99999" scaled_known="0"/>
  <place rank="13" score="1.383539484" scaled_type="0.6" scaled_pop="0" scaled_contained_by="0" scaled_contains="0" scaled_near="0" in-cc="MD" long="29.3869" lat="47.04618" type="ppl" gazref="geonames:829969" name="India" clusteriness="27.09698881" scaled_clusteriness="0.783539484" clusteriness_rank="16" locality="0" distance-to-known="99999" scaled_known="0"/>
  <place rank="14" score="1.328160558" scaled_type="0.6" scaled_pop="0" scaled_contained_by="0" scaled_contains="0" scaled_near="0" in-cc="MZ" long="36.91806" lat="-16.69639" type="ppl" gazref="geonames:1045266" name="India" clusteriness="34.96865148" scaled_clusteriness="0.7281605577" clusteriness_rank="18" locality="0" distance-to-known="99999" scaled_known="0"/>
  <place rank="15" score="1.2" scaled_type="0.2" scaled_pop="0" scaled_contained_by="0" scaled_contains="0" scaled_near="0" in-cc="AF" long="68.30389" lat="34.79944" type="fac" gazref="geonames:1455460" name="India" clusteriness="0" scaled_clusteriness="1" clusteriness_rank="2" locality="0" distance-to-known="99999" scaled_known="0"/>
  <place rank="16" score="1.2" scaled_type="0.2" scaled_pop="0" scaled_contained_by="0" scaled_contains="0" scaled_near="0" in-cc="SY" long="36.27763" lat="33.51869" type="fac" gazref="geonames:8373794" name="Al Hind" clusteriness="0.02768099251" scaled_clusteriness="1" clusteriness_rank="4" locality="0" distance-to-known="99999" scaled_known="0"/>
  <place rank="17" score="1.011207888" scaled_type="0.6" scaled_pop="0" scaled_contained_by="0" scaled_contains="0" scaled_near="0" in-cc="BR" long="-41.55" lat="-15.9" type="ppl" gazref="geonames:3461295" name="Índia" clusteriness="150.5165394" scaled_clusteriness="0.4112078876" clusteriness_rank="20" locality="0" distance-to-known="99999" scaled_known="0"/>
  <place rank="18" score="1" scaled_type="0" scaled_pop="0" scaled_contained_by="0" scaled_contains="0" scaled_near="0" in-cc="PH" long="120.97849" lat="14.32778" type="road" gazref="geonames:8610431" name="India" clusteriness="0.02184676449" scaled_clusteriness="1" clusteriness_rank="3" locality="0" distance-to-known="99999" scaled_known="0"/>
  <place rank="19" score="0.9512310006" scaled_type="0.2" scaled_pop="0" scaled_contained_by="0" scaled_contains="0" scaled_near="0" in-cc="ZA" long="28.16039" lat="-26.21891" type="fac" gazref="geonames:994820" name="India" clusteriness="31.4440153" scaled_clusteriness="0.7512310006" clusteriness_rank="17" locality="0" distance-to-known="99999" scaled_known="0"/>
  <place rank="20" score="0.7391384131" scaled_type="0.2" scaled_pop="0" scaled_contained_by="0" scaled_contains="0" scaled_near="0" in-cc="CL" long="-69.91597" lat="-27.1438" type="fac" gazref="geonames:3887266" name="India" clusteriness="83.50705614" scaled_clusteriness="0.5391384131" clusteriness_rank="19" locality="0" distance-to-known="99999" scaled_known="0"/>
 </placename>
 <placename id="rb8" name="Himachal Pradesh">
  <place rank="1" score="1.8" scaled_type="0.8" scaled_pop="0" scaled_contained_by="0" scaled_contains="0" scaled_near="0" in-cc="IN" long="77.25" lat="31.91667" type="civila" gazref="geonames:1270101" name="Himachal Pradesh" clusteriness="5.561094676" scaled_clusteriness="1" clusteriness_rank="1" locality="0" distance-to-known="99999" scaled_known="0"/>
 </placename>
 <placename id="rb9" name="Supreme Court">
  <place rank="1" score="1.2" scaled_type="0.2" scaled_pop="0" scaled_contained_by="0" scaled_contains="0" scaled_near="0" in-cc="IN" long="77.24043" lat="28.62223" type="fac" gazref="geonames:10263314" name="Supreme Court" clusteriness="9.414275985" scaled_clusteriness="1" clusteriness_rank="1" locality="0" distance-to-known="99999" scaled_known="0"/>
  <place rank="2" score="1.116051109" scaled_type="0.2" scaled_pop="0" scaled_contained_by="0" scaled_contains="0" scaled_near="0" in-cc="PK" long="73.09826" lat="33.7277" type="fac" gazref="geonames:9802182" name="Supreme Court" clusteriness="14.71966011" scaled_clusteriness="0.916051109" clusteriness_rank="2" locality="0" distance-to-known="99999" scaled_known="0"/>
  <place rank="3" score="0.7843274305" scaled_type="0.2" scaled_pop="0" scaled_contained_by="0" scaled_contains="0" scaled_near="0" in-cc="US" long="-77.00442" lat="38.89039" type="fac" gazref="geonames:4140603" name="Supreme Court" clusteriness="67.81802514" scaled_clusteriness="0.5843274305" clusteriness_rank="3" locality="0" distance-to-known="99999" scaled_known="0"/>
  <place rank="4" score="0.7003524524" scaled_type="0.2" scaled_pop="0" scaled_contained_by="0" scaled_contains="0" scaled_near="0" in-cc="PS" long="35.21532" lat="31.91661" type="fac" gazref="geonames:8053953" name="Maḩkamat al ‘Adl al ‘Ulyā wa Ḑarībat ad Dakhl" clusteriness="99.83782134" scaled_clusteriness="0.5003524524" clusteriness_rank="4" locality="0" distance-to-known="99999" scaled_known="0"/>
  <place rank="5" score="0.5587520141" scaled_type="0.2" scaled_pop="0" scaled_contained_by="0" scaled_contains="0" scaled_near="0" in-cc="RW" long="30.09745" lat="-1.95431" type="fac" gazref="geonames:9172199" name="Supreme Court" clusteriness="191.6443287" scaled_clusteriness="0.3587520141" clusteriness_rank="5" locality="0" distance-to-known="99999" scaled_known="0"/>
  <place rank="6" score="0.5587481861" scaled_type="0.2" scaled_pop="0" scaled_contained_by="0" scaled_contains="0" scaled_near="0" in-cc="RW" long="30.09757" lat="-1.95431" type="fac" gazref="geonames:9172195" name="Supreme Court" clusteriness="191.6477071" scaled_clusteriness="0.3587481861" clusteriness_rank="6" locality="0" distance-to-known="99999" scaled_known="0"/>
 </placename>
 <placename id="rb10" name="Garhwal" contains="rb1919">
  <place rank="1" score="1.6" scaled_type="0.6" scaled_pop="0" scaled_contained_by="0" scaled_contains="0" scaled_near="0" in-cc="PK" long="73.04599" lat="34.31104" type="ppl" gazref="geonames:1390055" name="Garwal" clusteriness="9.208786123" scaled_clusteriness="1" clusteriness_rank="1" locality="0" distance-to-known="99999" scaled_known="0"/>
  <place rank="2" score="1.456300487" scaled_type="0.6" scaled_pop="0" scaled_contained_by="0" scaled_contains="0" scaled_near="0" in-cc="PK" long="72.23454" lat="30.08826" type="ppl" gazref="geonames:1421497" name="Garhwal" clusteriness="19.3820195" scaled_clusteriness="0.856300487" clusteriness_rank="3" locality="0" distance-to-known="99999" scaled_known="0"/>
  <place rank="3" score="1.379309547" scaled_type="0.6" scaled_pop="0" scaled_contained_by="0" scaled_contains="0" scaled_near="0" in-cc="IN" long="78.61109" lat="29.80673" type="ppl" gazref="geonames:1272453" name="Dugadda" clusteriness="27.63000136" scaled_clusteriness="0.7793095469" clusteriness_rank="4" locality="0" distance-to-known="99999" scaled_known="0"/>
  <place rank="4" score="1.327619678" scaled_type="0.6" scaled_pop="0" scaled_contained_by="0" scaled_contains="0" scaled_near="0" in-cc="IN" long="76.5406" lat="29.18209" type="ppl" gazref="geonames:9892845" name="Garhwāl" clusteriness="35.0558614" scaled_clusteriness="0.7276196784" clusteriness_rank="6" locality="0" distance-to-known="99999" scaled_known="0"/>
  <place rank="5" score="1.312140238" scaled_type="0.4" scaled_pop="0" scaled_contained_by="0" scaled_contains="0" scaled_near="0" in-cc="IN" long="78.92853" lat="29.96366" type="civil" gazref="geonames:1271535" name="Pauri Garhwal" clusteriness="14.98716624" scaled_clusteriness="0.9121402377" clusteriness_rank="2" locality="0" distance-to-known="99999" scaled_known="0"/>
  <place rank="6" score="1.163558733" scaled_type="0.4" scaled_pop="0" scaled_contained_by="0" scaled_contains="0" scaled_near="0" in-cc="IN" long="79.61503" lat="30.15679" type="rgn" gazref="geonames:10803807" name="Garhwāl" clusteriness="29.70862374" scaled_clusteriness="0.7635587332" clusteriness_rank="5" locality="0" distance-to-known="99999" scaled_known="0"/>
 </placename>
 <placename id="rb11" name="Kumaon">
  <place rank="1" score="1.249559599" scaled_type="0.4" scaled_pop="0" scaled_contained_by="0" scaled_contains="0" scaled_near="0" in-cc="IN" long="79.5" lat="29.83333" type="rgn" gazref="geonames:1265684" name="Kumaun" clusteriness="19.99313054" scaled_clusteriness="0.8495595991" clusteriness_rank="1" locality="0" distance-to-known="99999" scaled_known="0"/>
  <place rank="2" score="1.107152521" scaled_type="0.6" scaled_pop="0" scaled_contained_by="0" scaled_contains="0" scaled_near="0" in-cc="IR" long="51.64024" lat="32.14464" type="ppl" gazref="geonames:418534" name="Qombovān" clusteriness="96.75979891" scaled_clusteriness="0.5071525214" clusteriness_rank="2" locality="0" distance-to-known="99999" scaled_known="0"/>
 </placename>
 <placename id="rb12" name="Uttar Pradesh">
  <place rank="1" score="1.8" scaled_type="0.8" scaled_pop="0" scaled_contained_by="0" scaled_contains="0" scaled_near="0" in-cc="IN" long="80.75" lat="27.25" type="civila" gazref="geonames:1253626" name="Uttar Pradesh" clusteriness="6.405734138" scaled_clusteriness="1" clusteriness_rank="1" locality="0" distance-to-known="99999" scaled_known="0"/>
 </placename>
 <placename id="rb15" name="Himachal">
  <place rank="1" score="1.342242295" scaled_type="0.4" scaled_pop="0" scaled_contained_by="0" scaled_contains="0" scaled_near="0" in-cc="BT" long="80" lat="30" type="mtn" gazref="geonames:1252529" name="Lesser Himalaya" clusteriness="13.04714265" scaled_clusteriness="0.9422422946" clusteriness_rank="1" locality="0" distance-to-known="99999" scaled_known="0"/>
 </placename>
 <placename id="rb16" name="Himalayas">
  <place rank="1" score="1.4" scaled_type="0.4" scaled_pop="0" scaled_contained_by="0" scaled_contains="0" scaled_near="0" in-cc="" long="84" lat="28" type="mtn" gazref="geonames:1252558" name="Himalayas" clusteriness="8.403048628" scaled_clusteriness="1" clusteriness_rank="1" locality="0" distance-to-known="99999" scaled_known="0"/>
 </placename>
 <placename id="rb17" name="Shimla">
  <place rank="1" score="2.447861398" scaled_type="0.8" scaled_pop="0.6478613977" scaled_contained_by="0" scaled_contains="0" scaled_near="0" in-cc="IN" long="77.16662" lat="31.10442" type="ppla" gazref="geonames:1256237" name="Shimla" pop="173503" clusteriness="0" scaled_clusteriness="1" clusteriness_rank="1" locality="0" distance-to-known="99999" scaled_known="0"/>
  <place rank="2" score="2.047861398" scaled_type="0.4" scaled_pop="0.6478613977" scaled_contained_by="0" scaled_contains="0" scaled_near="0" in-cc="IN" long="77.58333" lat="31.16667" type="civil" gazref="geonames:1256238" name="Shimla" pop="173503" clusteriness="2.413227215" scaled_clusteriness="1" clusteriness_rank="2" locality="0" distance-to-known="99999" scaled_known="0"/>
  <place rank="3" score="1.293747957" scaled_type="0.6" scaled_pop="0" scaled_contained_by="0" scaled_contains="0" scaled_near="0" in-cc="IN" long="76.22337" lat="29.63715" type="ppl" gazref="geonames:10317102" name="Shīmla" clusteriness="40.97359651" scaled_clusteriness="0.6937479568" clusteriness_rank="3" locality="0" distance-to-known="99999" scaled_known="0"/>
  <place rank="4" score="1.122888998" scaled_type="0.6" scaled_pop="0" scaled_contained_by="0" scaled_contains="0" scaled_near="0" in-cc="IN" long="74.57112" lat="28.69275" type="ppl" gazref="geonames:1256517" name="Shimla" clusteriness="89.99575068" scaled_clusteriness="0.5228889981" clusteriness_rank="4" locality="0" distance-to-known="99999" scaled_known="0"/>
 </placename>
 <placename id="rb31" name="Khash">
  <place rank="1" score="1.526996451" scaled_type="0.6" scaled_pop="0.5685255918" scaled_contained_by="0" scaled_contains="0" scaled_near="0" in-cc="IR" long="61.21582" lat="28.22107" type="ppl" gazref="geonames:1160571" name="Khāsh" pop="69603" clusteriness="191.892624" scaled_clusteriness="0.3584708592" clusteriness_rank="9" locality="0" distance-to-known="99999" scaled_known="0"/>
  <place rank="2" score="1.442194546" scaled_type="0.6" scaled_pop="0.4359850064" scaled_contained_by="0" scaled_contains="0" scaled_near="0" in-cc="AF" long="62.79055" lat="31.52919" type="ppl" gazref="geonames:1136863" name="Khāsh" pop="15133" clusteriness="154.0213483" scaled_clusteriness="0.4062095395" clusteriness_rank="6" locality="0" distance-to-known="99999" scaled_known="0"/>
  <place rank="3" score="1.304339149" scaled_type="0.4" scaled_pop="0.5685255918" scaled_contained_by="0" scaled_contains="0" scaled_near="0" in-cc="IR" long="60.76157" lat="28.19339" type="civil" gazref="geonames:1482481" name="Shahrestān-e Khāsh" pop="69603" clusteriness="212.9967051" scaled_clusteriness="0.3358135574" clusteriness_rank="10" locality="0" distance-to-known="99999" scaled_known="0"/>
  <place rank="4" score="1.252572901" scaled_type="0.4" scaled_pop="0.4359850064" scaled_contained_by="0" scaled_contains="0" scaled_near="0" in-cc="AF" long="62.00476" lat="31.15376" type="water" gazref="geonames:1136853" name="Khāsh Rōd" pop="15133" clusteriness="146.8331823" scaled_clusteriness="0.4165878944" clusteriness_rank="5" locality="0" distance-to-known="99999" scaled_known="0"/>
  <place rank="5" score="1.231021477" scaled_type="0.6" scaled_pop="0" scaled_contained_by="0" scaled_contains="0" scaled_near="0" in-cc="AF" long="70.71261" lat="37.03089" type="ppl" gazref="geonames:1136861" name="Khāsh" clusteriness="54.69618634" scaled_clusteriness="0.6310214768" clusteriness_rank="1" locality="0" distance-to-known="99999" scaled_known="0"/>
  <place rank="6" score="1.229721111" scaled_type="0.6" scaled_pop="0" scaled_contained_by="0" scaled_contains="0" scaled_near="0" in-cc="AF" long="70.72659" lat="37.03577" type="ppl" gazref="geonames:1468105" name="Khāsh" clusteriness="55.02471198" scaled_clusteriness="0.629721111" clusteriness_rank="2" locality="0" distance-to-known="99999" scaled_known="0"/>
  <place rank="7" score="1.187851874" scaled_type="0.6" scaled_pop="0" scaled_contained_by="0" scaled_contains="0" scaled_near="0" in-cc="AF" long="70.66874" lat="36.54062" type="ppl" gazref="geonames:1136862" name="Khāsh" clusteriness="66.72617844" scaled_clusteriness="0.5878518737" clusteriness_rank="4" locality="0" distance-to-known="99999" scaled_known="0"/>
  <place rank="8" score="1.019326865" scaled_type="0.4" scaled_pop="0" scaled_contained_by="0" scaled_contains="0" scaled_near="0" in-cc="AF" long="70.72566" lat="36.94031" type="civil" gazref="geonames:7052672" name="Khash District" clusteriness="57.7226511" scaled_clusteriness="0.6193268654" clusteriness_rank="3" locality="0" distance-to-known="99999" scaled_known="0"/>
  <place rank="9" score="0.9982449739" scaled_type="0.6" scaled_pop="0" scaled_contained_by="0" scaled_contains="0" scaled_near="0" in-cc="AF" long="61.20982" lat="32.08144" type="ppl" gazref="geonames:1438818" name="Khāsh" clusteriness="159.775451" scaled_clusteriness="0.3982449739" clusteriness_rank="7" locality="0" distance-to-known="99999" scaled_known="0"/>
  <place rank="10" score="0.79707449" scaled_type="0.4" scaled_pop="0" scaled_contained_by="0" scaled_contains="0" scaled_near="0" in-cc="AF" long="61.20864" lat="32.11126" type="rgn" gazref="geonames:1438816" name="Khāsh" clusteriness="160.6390104" scaled_clusteriness="0.39707449" clusteriness_rank="8" locality="0" distance-to-known="99999" scaled_known="0"/>
 </placename>
 <placename id="rb34" name="Nagas">
  <place rank="1" score="1.008768347" scaled_type="0.6" scaled_pop="0" scaled_contained_by="0" scaled_contains="0" scaled_near="0" in-cc="PH" long="123.37" lat="8.5953" type="ppl" gazref="geonames:6759420" name="Nagas" clusteriness="152.2170517" scaled_clusteriness="0.4087683471" clusteriness_rank="1" locality="0" distance-to-known="99999" scaled_known="0"/>
  <place rank="2" score="1.003504585" scaled_type="0.6" scaled_pop="0" scaled_contained_by="0" scaled_contains="0" scaled_near="0" in-cc="PH" long="123.6781" lat="13.4357" type="ppl" gazref="geonames:1698802" name="Naagas" clusteriness="155.9519577" scaled_clusteriness="0.4035045846" clusteriness_rank="2" locality="0" distance-to-known="99999" scaled_known="0"/>
  <place rank="3" score="0.9894783472" scaled_type="0.6" scaled_pop="0" scaled_contained_by="0" scaled_contains="0" scaled_near="0" in-cc="PH" long="123.29147" lat="13.10569" type="ppl" gazref="geonames:1698803" name="Nagas" clusteriness="166.3578526" scaled_clusteriness="0.3894783472" clusteriness_rank="5" locality="0" distance-to-known="99999" scaled_known="0"/>
  <place rank="4" score="0.9750958198" scaled_type="0.6" scaled_pop="0" scaled_contained_by="0" scaled_contains="0" scaled_near="0" in-cc="PH" long="125.9428" lat="7.0991" type="ppl" gazref="geonames:8015601" name="Nagas" clusteriness="177.7494888" scaled_clusteriness="0.3750958198" clusteriness_rank="7" locality="0" distance-to-known="99999" scaled_known="0"/>
  <place rank="5" score="0.8033332282" scaled_type="0.4" scaled_pop="0" scaled_contained_by="0" scaled_contains="0" scaled_near="0" in-cc="PH" long="123.68408" lat="13.42996" type="civil" gazref="geonames:11787202" name="Nagas" clusteriness="156.0750719" scaled_clusteriness="0.4033332282" clusteriness_rank="3" locality="0" distance-to-known="99999" scaled_known="0"/>
  <place rank="6" score="0.803203912" scaled_type="0.4" scaled_pop="0" scaled_contained_by="0" scaled_contains="0" scaled_near="0" in-cc="PH" long="123.68333" lat="13.45" type="water" gazref="geonames:1698796" name="Nagas River" clusteriness="156.1680459" scaled_clusteriness="0.403203912" clusteriness_rank="4" locality="0" distance-to-known="99999" scaled_known="0"/>
  <place rank="7" score="0.7894424076" scaled_type="0.4" scaled_pop="0" scaled_contained_by="0" scaled_contains="0" scaled_near="0" in-cc="PH" long="123.3126" lat="13.09503" type="civil" gazref="geonames:11787734" name="Nagas" clusteriness="166.3853884" scaled_clusteriness="0.3894424076" clusteriness_rank="6" locality="0" distance-to-known="99999" scaled_known="0"/>
  <place rank="8" score="0.7081354791" scaled_type="0.4" scaled_pop="0" scaled_contained_by="0" scaled_contains="0" scaled_near="0" in-cc="NA" long="18.53572" lat="-26.77982" type="water" gazref="geonames:3355372" name="Nagas" clusteriness="241.9519027" scaled_clusteriness="0.3081354791" clusteriness_rank="8" locality="0" distance-to-known="99999" scaled_known="0"/>
  <place rank="9" score="0.5041082792" scaled_type="0.2" scaled_pop="0" scaled_contained_by="0" scaled_contains="0" scaled_near="0" in-cc="NA" long="18.5248" lat="-26.93692" type="fac" gazref="geonames:3355373" name="Nagas" clusteriness="246.4809968" scaled_clusteriness="0.3041082792" clusteriness_rank="9" locality="0" distance-to-known="99999" scaled_known="0"/>
 </placename>
 <placename id="rb39" name="Kangra">
  <place rank="1" score="1.6" scaled_type="0.6" scaled_pop="0" scaled_contained_by="0" scaled_contains="0" scaled_near="0" in-cc="PK" long="74.66262" lat="31.91546" type="ppl" gazref="geonames:7467580" name="Kangra" clusteriness="0" scaled_clusteriness="1" clusteriness_rank="20" locality="0" distance-to-known="99999" scaled_known="0"/>
  <place rank="2" score="1.6" scaled_type="0.6" scaled_pop="0" scaled_contained_by="0" scaled_contains="0" scaled_near="0" in-cc="IN" long="75.46151" lat="31.65571" type="ppl" gazref="geonames:10701073" name="Kangra" clusteriness="0" scaled_clusteriness="1" clusteriness_rank="2" locality="0" distance-to-known="99999" scaled_known="0"/>
  <place rank="3" score="1.6" scaled_type="0.6" scaled_pop="0" scaled_contained_by="0" scaled_contains="0" scaled_near="0" in-cc="PK" long="74.17275" lat="32.92843" type="ppl" gazref="geonames:1371599" name="Kangra" clusteriness="0" scaled_clusteriness="1" clusteriness_rank="16" locality="0" distance-to-known="99999" scaled_known="0"/>
  <place rank="4" score="1.6" scaled_type="0.6" scaled_pop="0" scaled_contained_by="0" scaled_contains="0" scaled_near="0" in-cc="PK" long="72.46359" lat="31.98094" type="ppl" gazref="geonames:1174971" name="Kangra" clusteriness="0" scaled_clusteriness="1" clusteriness_rank="7" locality="0" distance-to-known="99999" scaled_known="0"/>
  <place rank="5" score="1.6" scaled_type="0.6" scaled_pop="0" scaled_contained_by="0" scaled_contains="0" scaled_near="0" in-cc="PK" long="71.60309" lat="34.20067" type="ppl" gazref="geonames:1174969" name="Kāngra" clusteriness="0" scaled_clusteriness="1" clusteriness_rank="5" locality="0" distance-to-known="99999" scaled_known="0"/>
  <place rank="6" score="1.6" scaled_type="0.6" scaled_pop="0" scaled_contained_by="0" scaled_contains="0" scaled_near="0" in-cc="PK" long="72.28648" lat="31.96152" type="ppl" gazref="geonames:1174972" name="Kangra" clusteriness="0" scaled_clusteriness="1" clusteriness_rank="8" locality="0" distance-to-known="99999" scaled_known="0"/>
  <place rank="7" score="1.6" scaled_type="0.6" scaled_pop="0" scaled_contained_by="0" scaled_contains="0" scaled_near="0" in-cc="PK" long="72.87786" lat="33.96617" type="ppl" gazref="geonames:1338710" name="Kangra" clusteriness="0" scaled_clusteriness="1" clusteriness_rank="14" locality="0" distance-to-known="99999" scaled_known="0"/>
  <place rank="8" score="1.6" scaled_type="0.6" scaled_pop="0" scaled_contained_by="0" scaled_contains="0" scaled_near="0" in-cc="IN" long="77.73084" lat="30.54718" type="ppl" gazref="geonames:10167744" name="Kāngra" clusteriness="0" scaled_clusteriness="1" clusteriness_rank="1" locality="0" distance-to-known="99999" scaled_known="0"/>
  <place rank="9" score="1.6" scaled_type="0.6" scaled_pop="0" scaled_contained_by="0" scaled_contains="0" scaled_near="0" in-cc="PK" long="71.42924" lat="34.61444" type="ppl" gazref="geonames:1107143" name="Kangra" clusteriness="0" scaled_clusteriness="1" clusteriness_rank="4" locality="0" distance-to-known="99999" scaled_known="0"/>
  <place rank="10" score="1.6" scaled_type="0.6" scaled_pop="0" scaled_contained_by="0" scaled_contains="0" scaled_near="0" in-cc="PK" long="72.28655" lat="31.53628" type="ppl" gazref="geonames:1174973" name="Kangra" clusteriness="0" scaled_clusteriness="1" clusteriness_rank="9" locality="0" distance-to-known="99999" scaled_known="0"/>
  <place rank="11" score="1.6" scaled_type="0.6" scaled_pop="0" scaled_contained_by="0" scaled_contains="0" scaled_near="0" in-cc="PK" long="74.18139" lat="32.93974" type="ppl" gazref="geonames:1371574" name="Kangara" clusteriness="0" scaled_clusteriness="1" clusteriness_rank="15" locality="0" distance-to-known="99999" scaled_known="0"/>
  <place rank="12" score="1.6" scaled_type="0.6" scaled_pop="0" scaled_contained_by="0" scaled_contains="0" scaled_near="0" in-cc="PK" long="72.47748" lat="32.05837" type="ppl" gazref="geonames:1174970" name="Jalalpur Kangra" clusteriness="0" scaled_clusteriness="1" clusteriness_rank="6" locality="0" distance-to-known="99999" scaled_known="0"/>
  <place rank="13" score="1.6" scaled_type="0.6" scaled_pop="0" scaled_contained_by="0" scaled_contains="0" scaled_near="0" in-cc="IN" long="76.2774" lat="32.10882" type="ppl" gazref="geonames:1276028" name="Bhawan" clusteriness="0" scaled_clusteriness="1" clusteriness_rank="13" locality="0" distance-to-known="99999" scaled_known="0"/>
  <place rank="14" score="1.6" scaled_type="0.6" scaled_pop="0" scaled_contained_by="0" scaled_contains="0" scaled_near="0" in-cc="PK" long="73.95713" lat="33.02874" type="ppl" gazref="geonames:1386506" name="Kangra" clusteriness="0" scaled_clusteriness="1" clusteriness_rank="17" locality="0" distance-to-known="99999" scaled_known="0"/>
  <place rank="15" score="1.6" scaled_type="0.6" scaled_pop="0" scaled_contained_by="0" scaled_contains="0" scaled_near="0" in-cc="IN" long="76.26267" lat="32.09135" type="ppl" gazref="geonames:1268084" name="Kangra" clusteriness="0" scaled_clusteriness="1" clusteriness_rank="10" locality="0" distance-to-known="99999" scaled_known="0"/>
  <place rank="16" score="1.6" scaled_type="0.6" scaled_pop="0" scaled_contained_by="0" scaled_contains="0" scaled_near="0" in-cc="PK" long="68.45278" lat="27.11944" type="ppl" gazref="geonames:1411921" name="Kangra" clusteriness="0" scaled_clusteriness="1" clusteriness_rank="19" locality="0" distance-to-known="99999" scaled_known="0"/>
  <place rank="17" score="1.4" scaled_type="0.4" scaled_pop="0" scaled_contained_by="0" scaled_contains="0" scaled_near="0" in-cc="IN" long="76.23426" lat="32.06289" type="civil" gazref="geonames:12685300" name="Kangra" clusteriness="0" scaled_clusteriness="1" clusteriness_rank="12" locality="0" distance-to-known="99999" scaled_known="0"/>
  <place rank="18" score="1.4" scaled_type="0.4" scaled_pop="0" scaled_contained_by="0" scaled_contains="0" scaled_near="0" in-cc="PK" long="71.96582" lat="32.51491" type="rgn" gazref="geonames:1404317" name="Kanjra" clusteriness="0" scaled_clusteriness="1" clusteriness_rank="18" locality="0" distance-to-known="99999" scaled_known="0"/>
  <place rank="19" score="1.4" scaled_type="0.4" scaled_pop="0" scaled_contained_by="0" scaled_contains="0" scaled_near="0" in-cc="IN" long="76.25" lat="32.16667" type="civil" gazref="geonames:1268085" name="Kāngra District" clusteriness="0" scaled_clusteriness="1" clusteriness_rank="11" locality="0" distance-to-known="99999" scaled_known="0"/>
  <place rank="20" score="1.2" scaled_type="0.2" scaled_pop="0" scaled_contained_by="0" scaled_contains="0" scaled_near="0" in-cc="IN" long="76.26474" lat="32.08535" type="fac" gazref="geonames:10723272" name="Kangra Railroad Station" clusteriness="0" scaled_clusteriness="1" clusteriness_rank="3" locality="0" distance-to-known="99999" scaled_known="0"/>
 </placename>
 <placename id="rb40" name="Hamirpur">
  <place rank="1" score="1.962108077" scaled_type="0.6" scaled_pop="0.4570214059" scaled_contained_by="0" scaled_contains="0" scaled_near="0" in-cc="IN" long="76.52506" lat="31.68411" type="ppl" gazref="geonames:1270454" name="Hamīrpur" pop="19280" clusteriness="15.48198557" scaled_clusteriness="0.9050866709" clusteriness_rank="3" locality="0" distance-to-known="99999" scaled_known="0"/>
  <place rank="2" score="1.858774985" scaled_type="0.6" scaled_pop="0.5066628795" scaled_contained_by="0" scaled_contains="0" scaled_near="0" in-cc="IN" long="79.78532" lat="26.78285" type="ppl" gazref="geonames:10487747" name="Hamīrpur" pop="34144" clusteriness="31.31668541" scaled_clusteriness="0.7521121052" clusteriness_rank="15" locality="0" distance-to-known="99999" scaled_known="0"/>
  <place rank="3" score="1.856403685" scaled_type="0.4" scaled_pop="0.4570214059" scaled_contained_by="0" scaled_contains="0" scaled_near="0" in-cc="IN" long="76.5" lat="31.75" type="civil" gazref="geonames:1270456" name="Hamirpur" pop="19280" clusteriness="10.02848762" scaled_clusteriness="0.9993822786" clusteriness_rank="1" locality="0" distance-to-known="99999" scaled_known="0"/>
  <place rank="4" score="1.849518486" scaled_type="0.6" scaled_pop="0.5066628795" scaled_contained_by="0" scaled_contains="0" scaled_near="0" in-cc="IN" long="79.73242" lat="26.63199" type="ppl" gazref="geonames:10486452" name="Hamīrpur" pop="34144" clusteriness="32.68050711" scaled_clusteriness="0.7428556065" clusteriness_rank="16" locality="0" distance-to-known="99999" scaled_known="0"/>
  <place rank="5" score="1.802450661" scaled_type="0.6" scaled_pop="0.5066628795" scaled_contained_by="0" scaled_contains="0" scaled_near="0" in-cc="IN" long="80.7579" lat="26.20454" type="ppl" gazref="geonames:10555299" name="Hamirpur" pop="34144" clusteriness="40.59050333" scaled_clusteriness="0.6957877816" clusteriness_rank="18" locality="0" distance-to-known="99999" scaled_known="0"/>
  <place rank="6" score="1.788950205" scaled_type="0.6" scaled_pop="0.5066628795" scaled_contained_by="0" scaled_contains="0" scaled_near="0" in-cc="IN" long="80.14842" lat="25.9553" type="ppl" gazref="geonames:1270455" name="Hamīrpur" pop="34144" clusteriness="43.19419139" scaled_clusteriness="0.6822873259" clusteriness_rank="20" locality="0" distance-to-known="99999" scaled_known="0"/>
  <place rank="7" score="1.736615402" scaled_type="0.4" scaled_pop="0.4570214059" scaled_contained_by="0" scaled_contains="0" scaled_near="0" in-cc="IN" long="76.50446" lat="31.64742" type="civil" gazref="geonames:12682535" name="Hamirpur" pop="19280" clusteriness="17.41053064" scaled_clusteriness="0.8795939961" clusteriness_rank="4" locality="0" distance-to-known="99999" scaled_known="0"/>
  <place rank="8" score="1.603522883" scaled_type="0.4" scaled_pop="0.5066628795" scaled_contained_by="0" scaled_contains="0" scaled_near="0" in-cc="IN" long="80.03333" lat="25.9344" type="civil" gazref="geonames:12683098" name="Hamirpur" pop="34144" clusteriness="40.39057101" scaled_clusteriness="0.6968600035" clusteriness_rank="17" locality="0" distance-to-known="99999" scaled_known="0"/>
  <place rank="9" score="1.593758125" scaled_type="0.4" scaled_pop="0.5066628795" scaled_contained_by="0" scaled_contains="0" scaled_near="0" in-cc="IN" long="80" lat="25.75" type="civil" gazref="geonames:1270457" name="Hamirpur" pop="34144" clusteriness="42.24832634" scaled_clusteriness="0.6870952454" clusteriness_rank="19" locality="0" distance-to-known="99999" scaled_known="0"/>
  <place rank="10" score="1.565149516" scaled_type="0.6" scaled_pop="0" scaled_contained_by="0" scaled_contains="0" scaled_near="0" in-cc="IN" long="80.82424" lat="27.15852" type="ppl" gazref="geonames:10580106" name="Hamirpur" clusteriness="11.74088861" scaled_clusteriness="0.9651495162" clusteriness_rank="2" locality="0" distance-to-known="99999" scaled_known="0"/>
  <place rank="11" score="1.42674665" scaled_type="0.6" scaled_pop="0" scaled_contained_by="0" scaled_contains="0" scaled_near="0" in-cc="IN" long="76.8995" lat="28.43554" type="ppl" gazref="geonames:9915434" name="Hamīrpur" clusteriness="22.20785941" scaled_clusteriness="0.8267466503" clusteriness_rank="5" locality="0" distance-to-known="99999" scaled_known="0"/>
  <place rank="12" score="1.419911031" scaled_type="0.6" scaled_pop="0" scaled_contained_by="0" scaled_contains="0" scaled_near="0" in-cc="IN" long="77.75944" lat="30.14898" type="ppl" gazref="geonames:1441142" name="Hamīrpur" clusteriness="22.91806451" scaled_clusteriness="0.8199110313" clusteriness_rank="6" locality="0" distance-to-known="99999" scaled_known="0"/>
  <place rank="13" score="1.403828888" scaled_type="0.6" scaled_pop="0" scaled_contained_by="0" scaled_contains="0" scaled_near="0" in-cc="IN" long="78.53706" lat="27.22517" type="ppl" gazref="geonames:10458236" name="Hamīrpur" clusteriness="24.67983338" scaled_clusteriness="0.8038288883" clusteriness_rank="7" locality="0" distance-to-known="99999" scaled_known="0"/>
  <place rank="14" score="1.399465216" scaled_type="0.6" scaled_pop="0" scaled_contained_by="0" scaled_contains="0" scaled_near="0" in-cc="IN" long="81.66651" lat="27.29308" type="ppl" gazref="geonames:10561559" name="Hamīrpur" clusteriness="25.18080262" scaled_clusteriness="0.7994652156" clusteriness_rank="8" locality="0" distance-to-known="99999" scaled_known="0"/>
  <place rank="15" score="1.395555857" scaled_type="0.6" scaled_pop="0" scaled_contained_by="0" scaled_contains="0" scaled_near="0" in-cc="IN" long="78.48583" lat="23.24551" type="ppl" gazref="geonames:10191386" name="Hamīrpur" clusteriness="25.63824451" scaled_clusteriness="0.7955558574" clusteriness_rank="9" locality="0" distance-to-known="99999" scaled_known="0"/>
  <place rank="16" score="1.395361786" scaled_type="0.6" scaled_pop="0" scaled_contained_by="0" scaled_contains="0" scaled_near="0" in-cc="IN" long="79.34998" lat="27.55873" type="ppl" gazref="geonames:10536746" name="Hamīrpur" clusteriness="25.66116847" scaled_clusteriness="0.7953617861" clusteriness_rank="10" locality="0" distance-to-known="99999" scaled_known="0"/>
  <place rank="17" score="1.367439359" scaled_type="0.6" scaled_pop="0" scaled_contained_by="0" scaled_contains="0" scaled_near="0" in-cc="IN" long="80.82484" lat="26.69093" type="ppl" gazref="geonames:10553137" name="Hamirpur" clusteriness="29.18241859" scaled_clusteriness="0.7674393587" clusteriness_rank="11" locality="0" distance-to-known="99999" scaled_known="0"/>
  <place rank="18" score="1.365068845" scaled_type="0.6" scaled_pop="0" scaled_contained_by="0" scaled_contains="0" scaled_near="0" in-cc="IN" long="79.45024" lat="27.14471" type="ppl" gazref="geonames:6993778" name="Hamīrpur" clusteriness="29.5027371" scaled_clusteriness="0.7650688454" clusteriness_rank="12" locality="0" distance-to-known="99999" scaled_known="0"/>
  <place rank="19" score="1.35991769" scaled_type="0.6" scaled_pop="0" scaled_contained_by="0" scaled_contains="0" scaled_near="0" in-cc="IN" long="79.51394" lat="26.9956" type="ppl" gazref="geonames:7003523" name="Hamīrpur" clusteriness="30.21096652" scaled_clusteriness="0.7599176902" clusteriness_rank="14" locality="0" distance-to-known="99999" scaled_known="0"/>
  <place rank="20" score="1.161765452" scaled_type="0.4" scaled_pop="0" scaled_contained_by="0" scaled_contains="0" scaled_near="0" in-cc="IN" long="79.219" lat="26.37507" type="rgn" gazref="geonames:10940869" name="Hamirpur" clusteriness="29.95498428" scaled_clusteriness="0.761765452" clusteriness_rank="13" locality="0" distance-to-known="99999" scaled_known="0"/>
 </placename>
 <placename id="rb41" name="districts of Himachal" altname="Himachal">
  <place rank="1" score="1.342242295" scaled_type="0.4" scaled_pop="0" scaled_contained_by="0" scaled_contains="0" scaled_near="0" in-cc="BT" long="80" lat="30" type="mtn" gazref="geonames:1252529" name="Lesser Himalaya" clusteriness="13.04714265" scaled_clusteriness="0.9422422946" clusteriness_rank="1" locality="0" distance-to-known="99999" scaled_known="0"/>
 </placename>
 <placename id="rb42" name="Doon">
  <place rank="1" score="1.114180257" scaled_type="0.4" scaled_pop="0" scaled_contained_by="0" scaled_contains="0" scaled_near="0" in-cc="CA" long="-80.43298" lat="43.38339" type="rgn" gazref="geonames:5941705" name="Doon" clusteriness="37.29404467" scaled_clusteriness="0.7141802566" clusteriness_rank="1" locality="0" distance-to-known="99999" scaled_known="0"/>
  <place rank="2" score="1.101253252" scaled_type="0.6" scaled_pop="0" scaled_contained_by="0" scaled_contains="0" scaled_near="0" in-cc="SO" long="43.12333" lat="11.23861" type="ppl" gazref="geonames:60628" name="Doon" clusteriness="99.4245186" scaled_clusteriness="0.5012532516" clusteriness_rank="2" locality="0" distance-to-known="99999" scaled_known="0"/>
  <place rank="3" score="1.030907148" scaled_type="0.6" scaled_pop="0" scaled_contained_by="0" scaled_contains="0" scaled_near="0" in-cc="IR" long="57.4236" lat="26.5208" type="ppl" gazref="geonames:135611" name="Deven" clusteriness="137.462964" scaled_clusteriness="0.4309071479" clusteriness_rank="5" locality="0" distance-to-known="99999" scaled_known="0"/>
  <place rank="4" score="1.020432238" scaled_type="0.6" scaled_pop="0" scaled_contained_by="0" scaled_contains="0" scaled_near="0" in-cc="US" long="-96.2328" lat="43.27942" type="ppl" gazref="geonames:4854215" name="Doon" clusteriness="144.2565441" scaled_clusteriness="0.4204322381" clusteriness_rank="6" locality="0" distance-to-known="99999" scaled_known="0"/>
  <place rank="5" score="0.8967934446" scaled_type="0.6" scaled_pop="0" scaled_contained_by="0" scaled_contains="0" scaled_near="0" in-cc="IE" long="-7.80861" lat="54.93389" type="ppl" gazref="geonames:3308959" name="Doon" clusteriness="254.9254008" scaled_clusteriness="0.2967934446" clusteriness_rank="7" locality="0" distance-to-known="99999" scaled_known="0"/>
  <place rank="6" score="0.8945434074" scaled_type="0.6" scaled_pop="0" scaled_contained_by="0" scaled_contains="0" scaled_near="0" in-cc="IE" long="-8.37833" lat="53.37833" type="ppl" gazref="geonames:3313352" name="Doon" clusteriness="257.5806205" scaled_clusteriness="0.2945434074" clusteriness_rank="8" locality="0" distance-to-known="99999" scaled_known="0"/>
  <place rank="7" score="0.8933534697" scaled_type="0.6" scaled_pop="0" scaled_contained_by="0" scaled_contains="0" scaled_near="0" in-cc="IE" long="-8.55472" lat="53.9651" type="ppl" gazref="geonames:12106428" name="Doon" clusteriness="258.9960023" scaled_clusteriness="0.2933534697" clusteriness_rank="9" locality="0" distance-to-known="99999" scaled_known="0"/>
  <place rank="8" score="0.8807831557" scaled_type="0.6" scaled_pop="0" scaled_contained_by="0" scaled_contains="0" scaled_near="0" in-cc="IE" long="-8.24444" lat="52.60361" type="ppl" gazref="geonames:2964717" name="Doon" clusteriness="274.4313289" scaled_clusteriness="0.2807831557" clusteriness_rank="10" locality="0" distance-to-known="99999" scaled_known="0"/>
  <place rank="9" score="0.8580039319" scaled_type="0.6" scaled_pop="0" scaled_contained_by="0" scaled_contains="0" scaled_near="0" in-cc="IE" long="-9.2525" lat="53.3775" type="ppl" gazref="geonames:3312250" name="Doon" clusteriness="304.7839802" scaled_clusteriness="0.2580039319" clusteriness_rank="13" locality="0" distance-to-known="99999" scaled_known="0"/>
  <place rank="10" score="0.8528453202" scaled_type="0.6" scaled_pop="0" scaled_contained_by="0" scaled_contains="0" scaled_near="0" in-cc="IE" long="-9.44352" lat="53.80583" type="ppl" gazref="geonames:10130000" name="Doon" clusteriness="312.1112044" scaled_clusteriness="0.2528453202" clusteriness_rank="14" locality="0" distance-to-known="99999" scaled_known="0"/>
  <place rank="11" score="0.8359523777" scaled_type="0.4" scaled_pop="0" scaled_contained_by="0" scaled_contains="0" scaled_near="0" in-cc="CA" long="-80.84978" lat="47.90016" type="rgn" gazref="geonames:5941706" name="Doon" clusteriness="134.3059474" scaled_clusteriness="0.4359523777" clusteriness_rank="4" locality="0" distance-to-known="99999" scaled_known="0"/>
  <place rank="12" score="0.8259783471" scaled_type="0.6" scaled_pop="0" scaled_contained_by="0" scaled_contains="0" scaled_near="0" in-cc="IE" long="-9.66457" lat="52.52466" type="ppl" gazref="geonames:2964718" name="Doon" clusteriness="353.2183894" scaled_clusteriness="0.2259783471" clusteriness_rank="16" locality="0" distance-to-known="99999" scaled_known="0"/>
  <place rank="13" score="0.6781090974" scaled_type="0.2" scaled_pop="0" scaled_contained_by="0" scaled_contains="0" scaled_near="0" in-cc="ZA" long="27.2808" lat="-32.46357" type="fac" gazref="geonames:1009443" name="Doon" clusteriness="110.6067943" scaled_clusteriness="0.4781090974" clusteriness_rank="3" locality="0" distance-to-known="99999" scaled_known="0"/>
  <place rank="14" score="0.6751422199" scaled_type="0.4" scaled_pop="0" scaled_contained_by="0" scaled_contains="0" scaled_near="0" in-cc="IE" long="-8.06" lat="52.21861" type="rgn" gazref="geonames:3300643" name="Doon" clusteriness="281.6537644" scaled_clusteriness="0.2751422199" clusteriness_rank="11" locality="0" distance-to-known="99999" scaled_known="0"/>
  <place rank="15" score="0.6662761778" scaled_type="0.4" scaled_pop="0" scaled_contained_by="0" scaled_contains="0" scaled_near="0" in-cc="NZ" long="167.5" lat="-45.15" type="water" gazref="geonames:2191669" name="Doon River" clusteriness="293.391579" scaled_clusteriness="0.2662761778" clusteriness_rank="12" locality="0" distance-to-known="99999" scaled_known="0"/>
  <place rank="16" score="0.6426495163" scaled_type="0.4" scaled_pop="0" scaled_contained_by="0" scaled_contains="0" scaled_near="0" in-cc="IE" long="-8.60556" lat="51.7225" type="rgn" gazref="geonames:3293879" name="Doon" clusteriness="327.1153826" scaled_clusteriness="0.2426495163" clusteriness_rank="15" locality="0" distance-to-known="99999" scaled_known="0"/>
  <place rank="17" score="0.6059860178" scaled_type="0.4" scaled_pop="0" scaled_contained_by="0" scaled_contains="0" scaled_near="0" in-cc="IE" long="-10.02556" lat="52.20528" type="mtn" gazref="geonames:3298875" name="Doon" clusteriness="387.2825815" scaled_clusteriness="0.2059860178" clusteriness_rank="18" locality="0" distance-to-known="99999" scaled_known="0"/>
  <place rank="18" score="0.5302056903" scaled_type="0.4" scaled_pop="0" scaled_contained_by="0" scaled_contains="0" scaled_near="0" in-cc="SO" long="43.03333" lat="0.15" type="water" gazref="geonames:60627" name="Doon" clusteriness="549.0205739" scaled_clusteriness="0.1302056903" clusteriness_rank="19" locality="0" distance-to-known="99999" scaled_known="0"/>
  <place rank="19" score="0.4483104115" scaled_type="0.4" scaled_pop="0" scaled_contained_by="0" scaled_contains="0" scaled_near="0" in-cc="TD" long="16.53333" lat="20.98333" type="mtn" gazref="geonames:2433208" name="Doon" clusteriness="800.532885" scaled_clusteriness="0.04831041152" clusteriness_rank="20" locality="0" distance-to-known="99999" scaled_known="0"/>
  <place rank="20" score="0.2067474173" scaled_type="0" scaled_pop="0" scaled_contained_by="0" scaled_contains="0" scaled_near="0" in-cc="IE" long="-9.78583" lat="51.85333" type="other" gazref="geonames:3290226" name="Doon" clusteriness="385.9270018" scaled_clusteriness="0.2067474173" clusteriness_rank="17" locality="0" distance-to-known="99999" scaled_known="0"/>
 </placename>
 <placename id="rb55" name="Punjab Hill States"/>
 <placename id="rb56" name="Vols">
  <place rank="1" score="1.222558817" scaled_type="0.6" scaled_pop="0" scaled_contained_by="0" scaled_contains="0" scaled_near="0" in-cc="IT" long="11.50128" lat="46.51672" type="ppl" gazref="geonames:3177028" name="Fiè Allo Sciliar" clusteriness="56.86988714" scaled_clusteriness="0.6225588168" clusteriness_rank="1" locality="0" distance-to-known="99999" scaled_known="0"/>
  <place rank="2" score="1.152914484" scaled_type="0.6" scaled_pop="0" scaled_contained_by="0" scaled_contains="0" scaled_near="0" in-cc="NL" long="6.01806" lat="50.77083" type="ppl" gazref="geonames:2745906" name="Vaals" clusteriness="78.37382305" scaled_clusteriness="0.552914484" clusteriness_rank="2" locality="0" distance-to-known="99999" scaled_known="0"/>
  <place rank="3" score="1.118197593" scaled_type="0.6" scaled_pop="0" scaled_contained_by="0" scaled_contains="0" scaled_near="0" in-cc="AT" long="11.33333" lat="47.25" type="ppl" gazref="geonames:2762304" name="Völs" clusteriness="91.96123894" scaled_clusteriness="0.5181975932" clusteriness_rank="3" locality="0" distance-to-known="99999" scaled_known="0"/>
  <place rank="4" score="1.062173635" scaled_type="0.6" scaled_pop="0" scaled_contained_by="0" scaled_contains="0" scaled_near="0" in-cc="FI" long="24.39733" lat="60.17287" type="ppl" gazref="geonames:631263" name="Vols" clusteriness="119.0289849" scaled_clusteriness="0.4621736351" clusteriness_rank="5" locality="0" distance-to-known="99999" scaled_known="0"/>
  <place rank="5" score="1.048757945" scaled_type="0.6" scaled_pop="0" scaled_contained_by="0" scaled_contains="0" scaled_near="0" in-cc="FI" long="23.98333" lat="60.21667" type="ppl" gazref="geonames:631285" name="Vohloinen" clusteriness="126.614694" scaled_clusteriness="0.4487579451" clusteriness_rank="6" locality="0" distance-to-known="99999" scaled_known="0"/>
  <place rank="6" score="0.9163142367" scaled_type="0.4" scaled_pop="0" scaled_contained_by="0" scaled_contains="0" scaled_near="0" in-cc="AT" long="11.32245" lat="47.25227" type="civil" gazref="geonames:7873627" name="Völs" clusteriness="92.76230392" scaled_clusteriness="0.5163142367" clusteriness_rank="4" locality="0" distance-to-known="99999" scaled_known="0"/>
 </placename>
 <placename id="rb61" name="Himalaya">
  <place rank="1" score="1.447644809" scaled_type="0.6" scaled_pop="0" scaled_contained_by="0" scaled_contains="0" scaled_near="0" in-cc="NP" long="83.97822" lat="28.19148" type="ppl" gazref="geonames:7961428" name="HImalaya" clusteriness="20.17020824" scaled_clusteriness="0.847644809" clusteriness_rank="4" locality="0" distance-to-known="99999" scaled_known="0"/>
  <place rank="2" score="1.4" scaled_type="0.4" scaled_pop="0" scaled_contained_by="0" scaled_contains="0" scaled_near="0" in-cc="" long="84" lat="28" type="mtn" gazref="geonames:1252558" name="Himalayas" clusteriness="8.403048628" scaled_clusteriness="1" clusteriness_rank="2" locality="0" distance-to-known="99999" scaled_known="0"/>
  <place rank="3" score="1.342242295" scaled_type="0.4" scaled_pop="0" scaled_contained_by="0" scaled_contains="0" scaled_near="0" in-cc="BT" long="80" lat="30" type="mtn" gazref="geonames:1252529" name="Lesser Himalaya" clusteriness="13.04714265" scaled_clusteriness="0.9422422946" clusteriness_rank="3" locality="0" distance-to-known="99999" scaled_known="0"/>
  <place rank="4" score="1.314302065" scaled_type="0.6" scaled_pop="0" scaled_contained_by="0" scaled_contains="0" scaled_near="0" in-cc="NP" long="83.88457" lat="28.48874" type="ppl" gazref="geonames:7960569" name="Himalaya" clusteriness="37.27313043" scaled_clusteriness="0.7143020655" clusteriness_rank="5" locality="0" distance-to-known="99999" scaled_known="0"/>
  <place rank="5" score="1.099079809" scaled_type="0.6" scaled_pop="0" scaled_contained_by="0" scaled_contains="0" scaled_near="0" in-cc="US" long="-90.99732" lat="29.84937" type="ppl" gazref="geonames:4327496" name="Himalaya" clusteriness="100.4246627" scaled_clusteriness="0.4990798092" clusteriness_rank="9" locality="0" distance-to-known="99999" scaled_known="0"/>
  <place rank="6" score="1.046043219" scaled_type="0.6" scaled_pop="0" scaled_contained_by="0" scaled_contains="0" scaled_near="0" in-cc="MX" long="-93.42778" lat="16.13917" type="ppl" gazref="geonames:8940071" name="Himalaya" clusteriness="128.2075385" scaled_clusteriness="0.4460432189" clusteriness_rank="10" locality="0" distance-to-known="99999" scaled_known="0"/>
  <place rank="7" score="1.003078329" scaled_type="0.4" scaled_pop="0" scaled_contained_by="0" scaled_contains="0" scaled_near="0" in-cc="NP" long="83" lat="29" type="mtn" gazref="geonames:1252569" name="Great Himalaya Range" clusteriness="62.20758517" scaled_clusteriness="0.6030783286" clusteriness_rank="6" locality="0" distance-to-known="99999" scaled_known="0"/>
  <place rank="8" score="1" scaled_type="0" scaled_pop="0" scaled_contained_by="0" scaled_contains="0" scaled_near="0" in-cc="PH" long="120.90793" lat="14.29739" type="road" gazref="geonames:8635953" name="Himalaya" clusteriness="5.947200531" scaled_clusteriness="1" clusteriness_rank="1" locality="0" distance-to-known="99999" scaled_known="0"/>
  <place rank="9" score="0.9062364166" scaled_type="0.4" scaled_pop="0" scaled_contained_by="0" scaled_contains="0" scaled_near="0" in-cc="NO" long="9.6415" lat="60.8431" type="mtn" gazref="geonames:9206042" name="Himalaya" clusteriness="97.16887324" scaled_clusteriness="0.5062364166" clusteriness_rank="8" locality="0" distance-to-known="99999" scaled_known="0"/>
  <place rank="10" score="0.8223831129" scaled_type="0.4" scaled_pop="0" scaled_contained_by="0" scaled_contains="0" scaled_near="0" in-cc="ZA" long="29.86667" lat="-24.33333" type="mtn" gazref="geonames:996412" name="Himalaya" clusteriness="142.9663318" scaled_clusteriness="0.4223831129" clusteriness_rank="11" locality="0" distance-to-known="99999" scaled_known="0"/>
  <place rank="11" score="0.7751680893" scaled_type="0.6" scaled_pop="0" scaled_contained_by="0" scaled_contains="0" scaled_near="0" in-cc="ID" long="122.5163" lat="0.7561" type="ppl" gazref="geonames:6968197" name="Himalaya" clusteriness="446.3379572" scaled_clusteriness="0.1751680893" clusteriness_rank="15" locality="0" distance-to-known="99999" scaled_known="0"/>
  <place rank="12" score="0.7734898612" scaled_type="0.6" scaled_pop="0" scaled_contained_by="0" scaled_contains="0" scaled_near="0" in-cc="EC" long="-75.95861" lat="-0.57726" type="ppl" gazref="geonames:3655805" name="Himalaya" clusteriness="449.800856" scaled_clusteriness="0.1734898612" clusteriness_rank="16" locality="0" distance-to-known="99999" scaled_known="0"/>
  <place rank="13" score="0.7425697401" scaled_type="0.4" scaled_pop="0" scaled_contained_by="0" scaled_contains="0" scaled_near="0" in-cc="ZW" long="32.78333" lat="-19.38333" type="mtn" gazref="geonames:890141" name="Himalaya" clusteriness="206.4716934" scaled_clusteriness="0.3425697401" clusteriness_rank="14" locality="0" distance-to-known="99999" scaled_known="0"/>
  <place rank="14" score="0.7399409898" scaled_type="0.6" scaled_pop="0" scaled_contained_by="0" scaled_contains="0" scaled_near="0" in-cc="MX" long="-111.31057" lat="28.14929" type="ppl" gazref="geonames:3970791" name="Himalaya" clusteriness="524.9500972" scaled_clusteriness="0.1399409898" clusteriness_rank="17" locality="0" distance-to-known="99999" scaled_known="0"/>
  <place rank="15" score="0.7118961608" scaled_type="0.2" scaled_pop="0" scaled_contained_by="0" scaled_contains="0" scaled_near="0" in-cc="CN" long="104.05549" lat="30.69778" type="fac" gazref="geonames:10290658" name="Himalaya" clusteriness="94.66897574" scaled_clusteriness="0.5118961608" clusteriness_rank="7" locality="0" distance-to-known="99999" scaled_known="0"/>
  <place rank="16" score="0.6220107653" scaled_type="0.2" scaled_pop="0" scaled_contained_by="0" scaled_contains="0" scaled_near="0" in-cc="ZA" long="29.87343" lat="-24.35213" type="fac" gazref="geonames:996413" name="Himalaya" clusteriness="143.2116899" scaled_clusteriness="0.4220107653" clusteriness_rank="12" locality="0" distance-to-known="99999" scaled_known="0"/>
  <place rank="17" score="0.5435499211" scaled_type="0.2" scaled_pop="0" scaled_contained_by="0" scaled_contains="0" scaled_near="0" in-cc="ZW" long="32.76667" lat="-19.4" type="fac" gazref="geonames:890142" name="Himalaya" clusteriness="205.5418011" scaled_clusteriness="0.3435499211" clusteriness_rank="13" locality="0" distance-to-known="99999" scaled_known="0"/>
 </placename>
 <placename id="rb95" name="Beas" contains="rb216">
  <place rank="1" score="2.4" scaled_type="0.4" scaled_pop="0" scaled_contained_by="0" scaled_contains="0.2" scaled_near="0" in-cc="IN" long="77.0003" lat="31.7176" type="water" gazref="geonames:9921537" name="Beās River" clusteriness="7.394118047" scaled_clusteriness="1" clusteriness_rank="1" locality="0" distance-to-known="99999" scaled_known="0"/>
  <place rank="2" score="1.508802871" scaled_type="0.6" scaled_pop="0" scaled_contained_by="0" scaled_contains="0" scaled_near="0" in-cc="IN" long="75.29966" lat="31.51727" type="ppl" gazref="geonames:1462731" name="Beās" clusteriness="15.21928528" scaled_clusteriness="0.9088028712" clusteriness_rank="3" locality="0" distance-to-known="99999" scaled_known="0"/>
  <place rank="3" score="1.348513522" scaled_type="0.4" scaled_pop="0" scaled_contained_by="0" scaled_contains="0" scaled_near="0" in-cc="IN" long="75.31717" lat="31.56614" type="civil" gazref="geonames:12681637" name="Beas" clusteriness="12.67572928" scaled_clusteriness="0.9485135223" clusteriness_rank="2" locality="0" distance-to-known="99999" scaled_known="0"/>
  <place rank="4" score="1.305628459" scaled_type="0.4" scaled_pop="0" scaled_contained_by="0" scaled_contains="0" scaled_near="0" in-cc="IN" long="74.98805" lat="31.16468" type="water" gazref="geonames:1276635" name="Beās River" clusteriness="15.44340575" scaled_clusteriness="0.905628459" clusteriness_rank="5" locality="0" distance-to-known="99999" scaled_known="0"/>
  <place rank="5" score="1.241766853" scaled_type="0.4" scaled_pop="0" scaled_contained_by="0" scaled_contains="0" scaled_near="0" in-cc="PK" long="71.20833" lat="29.625" type="water" gazref="geonames:1332070" name="Beas River" clusteriness="20.72365216" scaled_clusteriness="0.8417668529" clusteriness_rank="6" locality="0" distance-to-known="99999" scaled_known="0"/>
  <place rank="6" score="1.107452178" scaled_type="0.2" scaled_pop="0" scaled_contained_by="0" scaled_contains="0" scaled_near="0" in-cc="IN" long="75.29216" lat="31.51773" type="fac" gazref="geonames:1276636" name="Beās" clusteriness="15.31424686" scaled_clusteriness="0.9074521783" clusteriness_rank="4" locality="0" distance-to-known="99999" scaled_known="0"/>
  <place rank="7" score="1.082944803" scaled_type="0.6" scaled_pop="0" scaled_contained_by="0" scaled_contains="0" scaled_near="0" in-cc="YE" long="44.53333" lat="15.53333" type="ppl" gazref="geonames:76883" name="Beas" clusteriness="108.1708877" scaled_clusteriness="0.4829448031" clusteriness_rank="7" locality="0" distance-to-known="99999" scaled_known="0"/>
  <place rank="8" score="0.8096098048" scaled_type="0.6" scaled_pop="0" scaled_contained_by="0" scaled_contains="0" scaled_near="0" in-cc="MX" long="-116.11887" lat="30.92035" type="ppl" gazref="geonames:8677215" name="Beas" clusteriness="380.8731786" scaled_clusteriness="0.2096098048" clusteriness_rank="8" locality="0" distance-to-known="99999" scaled_known="0"/>
  <place rank="9" score="0.80269191" scaled_type="0.6" scaled_pop="0" scaled_contained_by="0" scaled_contains="0" scaled_near="0" in-cc="ES" long="-6.79318" lat="37.4257" type="ppl" gazref="geonames:2521212" name="Beas" clusteriness="393.2024182" scaled_clusteriness="0.20269191" clusteriness_rank="10" locality="0" distance-to-known="99999" scaled_known="0"/>
  <place rank="10" score="0.6036445918" scaled_type="0.4" scaled_pop="0" scaled_contained_by="0" scaled_contains="0" scaled_near="0" in-cc="ES" long="-6.81247" lat="37.48316" type="civil" gazref="geonames:6358187" name="Beas" clusteriness="391.4811148" scaled_clusteriness="0.2036445918" clusteriness_rank="9" locality="0" distance-to-known="99999" scaled_known="0"/>
  <place rank="11" score="0.344290578" scaled_type="0.2" scaled_pop="0" scaled_contained_by="0" scaled_contains="0" scaled_near="0" in-cc="AR" long="-63.75" lat="-30.2" type="fac" gazref="geonames:3864444" name="Beas" clusteriness="514.5396467" scaled_clusteriness="0.144290578" clusteriness_rank="11" locality="0" distance-to-known="99999" scaled_known="0"/>
 </placename>
 <placename id="rb105" name="Flatt">
  <place rank="1" score="0.9240289109" scaled_type="0.6" scaled_pop="0" scaled_contained_by="0" scaled_contains="0" scaled_near="0" in-cc="NO" long="12.33068" lat="64.69324" type="ppl" gazref="geonames:3157112" name="Flått" clusteriness="224.8755188" scaled_clusteriness="0.3240289109" clusteriness_rank="1" locality="0" distance-to-known="99999" scaled_known="0"/>
 </placename>
 <placename id="rb113" name="Cambridge">
  <place rank="1" score="1.917905039" scaled_type="0.6" scaled_pop="0.6161043737" scaled_contained_by="0" scaled_contains="0" scaled_near="0" in-cc="CA" long="-80.31269" lat="43.3601" type="ppl" gazref="geonames:5913695" name="Cambridge" pop="120371" clusteriness="39.48195686" scaled_clusteriness="0.7018006652" clusteriness_rank="1" locality="0" distance-to-known="99999" scaled_known="0"/>
  <place rank="2" score="1.803180214" scaled_type="0.6" scaled_pop="0.6011921709" scaled_contained_by="0" scaled_contains="0" scaled_near="0" in-cc="US" long="-71.10561" lat="42.3751" type="ppl" gazref="geonames:4931972" name="Cambridge" pop="101382" clusteriness="62.52071172" scaled_clusteriness="0.6019880434" clusteriness_rank="8" locality="0" distance-to-known="99999" scaled_known="0"/>
  <place rank="3" score="1.779116725" scaled_type="0.6" scaled_pop="0.6217725138" scaled_contained_by="0" scaled_contains="0" scaled_near="0" in-cc="GB" long="0.11667" lat="52.2" type="ppl" gazref="geonames:2653941" name="Cambridge" pop="128488" clusteriness="76.79122181" scaled_clusteriness="0.5573442112" clusteriness_rank="10" locality="0" distance-to-known="99999" scaled_known="0"/>
  <place rank="4" score="1.262648542" scaled_type="0.6" scaled_pop="0" scaled_contained_by="0" scaled_contains="0" scaled_near="0" in-cc="JM" long="-77.90252" lat="18.31326" type="ppl" gazref="geonames:3491102" name="Cambridge" clusteriness="47.28277044" scaled_clusteriness="0.6626485424" clusteriness_rank="3" locality="0" distance-to-known="99999" scaled_known="0"/>
  <place rank="5" score="1.246545908" scaled_type="0.6" scaled_pop="0" scaled_contained_by="0" scaled_contains="0" scaled_near="0" in-cc="US" long="-85.61663" lat="38.22174" type="ppl" gazref="geonames:4286595" name="Cambridge" clusteriness="50.9223203" scaled_clusteriness="0.6465459079" clusteriness_rank="4" locality="0" distance-to-known="99999" scaled_known="0"/>
  <place rank="6" score="1.229619342" scaled_type="0.6" scaled_pop="0" scaled_contained_by="0" scaled_contains="0" scaled_near="0" in-cc="GB" long="-2.36667" lat="51.73333" type="ppl" gazref="geonames:2653942" name="Cambridge" clusteriness="55.05050612" scaled_clusteriness="0.629619342" clusteriness_rank="5" locality="0" distance-to-known="99999" scaled_known="0"/>
  <place rank="7" score="1.221387984" scaled_type="0.6" scaled_pop="0" scaled_contained_by="0" scaled_contains="0" scaled_near="0" in-cc="US" long="-89.0165" lat="43.00361" type="ppl" gazref="geonames:5247533" name="Cambridge" clusteriness="57.17735127" scaled_clusteriness="0.6213879836" clusteriness_rank="6" locality="0" distance-to-known="99999" scaled_known="0"/>
  <place rank="8" score="1.216859522" scaled_type="0.6" scaled_pop="0" scaled_contained_by="0" scaled_contains="0" scaled_near="0" in-cc="US" long="-69.47394" lat="45.02422" type="ppl" gazref="geonames:4959902" name="Cambridge" clusteriness="58.38226718" scaled_clusteriness="0.616859522" clusteriness_rank="7" locality="0" distance-to-known="99999" scaled_known="0"/>
  <place rank="9" score="1.101903066" scaled_type="0.6" scaled_pop="0" scaled_contained_by="0" scaled_contains="0" scaled_near="0" in-cc="US" long="-96.66447" lat="37.31614" type="ppl" gazref="geonames:4268984" name="Cambridge" clusteriness="99.12743471" scaled_clusteriness="0.5019030663" clusteriness_rank="11" locality="0" distance-to-known="99999" scaled_known="0"/>
  <place rank="10" score="1.088747102" scaled_type="0.6" scaled_pop="0" scaled_contained_by="0" scaled_contains="0" scaled_near="0" in-cc="CA" long="-64.11336" lat="45.20235" type="ppl" gazref="geonames:5913692" name="Cambridge" clusteriness="105.3187741" scaled_clusteriness="0.4887471024" clusteriness_rank="12" locality="0" distance-to-known="99999" scaled_known="0"/>
  <place rank="11" score="1.070743376" scaled_type="0.6" scaled_pop="0" scaled_contained_by="0" scaled_contains="0" scaled_near="0" in-cc="US" long="-93.5291" lat="41.89832" type="ppl" gazref="geonames:4850220" name="Cambridge" clusteriness="114.4229785" scaled_clusteriness="0.4707433756" clusteriness_rank="14" locality="0" distance-to-known="99999" scaled_known="0"/>
  <place rank="12" score="1.0633315" scaled_type="0.4" scaled_pop="0" scaled_contained_by="0" scaled_contains="0" scaled_near="0" in-cc="JM" long="-77.89546" lat="18.31308" type="civil" gazref="geonames:11495107" name="Cambridge" clusteriness="47.13429321" scaled_clusteriness="0.6633315004" clusteriness_rank="2" locality="0" distance-to-known="99999" scaled_known="0"/>
  <place rank="13" score="1.055268153" scaled_type="0.6" scaled_pop="0" scaled_contained_by="0" scaled_contains="0" scaled_near="0" in-cc="US" long="-92.9488" lat="39.25781" type="ppl" gazref="geonames:4379627" name="Cambridge" clusteriness="122.875046" scaled_clusteriness="0.4552681533" clusteriness_rank="15" locality="0" distance-to-known="99999" scaled_known="0"/>
  <place rank="14" score="1.022656736" scaled_type="0.6" scaled_pop="0" scaled_contained_by="0" scaled_contains="0" scaled_near="0" in-cc="US" long="-100.16569" lat="40.28195" type="ppl" gazref="geonames:5694019" name="Cambridge" clusteriness="142.7862958" scaled_clusteriness="0.4226567364" clusteriness_rank="16" locality="0" distance-to-known="99999" scaled_known="0"/>
  <place rank="15" score="1.008255053" scaled_type="0.6" scaled_pop="0" scaled_contained_by="0" scaled_contains="0" scaled_near="0" in-cc="US" long="-116.67599" lat="44.57266" type="ppl" gazref="geonames:5587779" name="Cambridge" clusteriness="152.5772887" scaled_clusteriness="0.4082550534" clusteriness_rank="17" locality="0" distance-to-known="99999" scaled_known="0"/>
  <place rank="16" score="0.9903910698" scaled_type="0.4" scaled_pop="0" scaled_contained_by="0" scaled_contains="0" scaled_near="0" in-cc="CA" long="-75.116" lat="45.3168" type="rgn" gazref="geonames:5913696" name="Cambridge" clusteriness="65.95046476" scaled_clusteriness="0.5903910698" clusteriness_rank="9" locality="0" distance-to-known="99999" scaled_known="0"/>
  <place rank="17" score="0.8794510291" scaled_type="0.4" scaled_pop="0" scaled_contained_by="0" scaled_contains="0" scaled_near="0" in-cc="CA" long="-66.03216" lat="45.83344" type="rgn" gazref="geonames:5913694" name="Cambridge" clusteriness="109.9253714" scaled_clusteriness="0.4794510291" clusteriness_rank="13" locality="0" distance-to-known="99999" scaled_known="0"/>
  <place rank="18" score="0.7190422924" scaled_type="0.4" scaled_pop="0" scaled_contained_by="0" scaled_contains="0" scaled_near="0" in-cc="NZ" long="175.46667" lat="-37.9" type="civil" gazref="geonames:2192708" name="Cambridge" clusteriness="230.0993624" scaled_clusteriness="0.3190422924" clusteriness_rank="18" locality="0" distance-to-known="99999" scaled_known="0"/>
  <place rank="19" score="0.7181118524" scaled_type="0.4" scaled_pop="0" scaled_contained_by="0" scaled_contains="0" scaled_near="0" in-cc="NZ" long="175.46667" lat="-37.88333" type="civil" gazref="geonames:2192707" name="Cambridge" clusteriness="231.0874153" scaled_clusteriness="0.3181118524" clusteriness_rank="19" locality="0" distance-to-known="99999" scaled_known="0"/>
  <place rank="20" score="0.4097970636" scaled_type="0.4" scaled_pop="0" scaled_contained_by="0" scaled_contains="0" scaled_near="0" in-cc="AU" long="115.79887" lat="-31.93542" type="civil" gazref="geonames:7839478" name="Cambridge" clusteriness="955.8854979" scaled_clusteriness="0.009797063585" clusteriness_rank="20" locality="0" distance-to-known="99999" scaled_known="0"/>
 </placename>
 <placename id="rb118" name="London">
  <place rank="1" score="2.798708033" scaled_type="1" scaled_pop="0.9740949325" scaled_contained_by="0" scaled_contains="0" scaled_near="0" in-cc="GB" long="-0.12574" lat="51.50853" type="pplc" gazref="geonames:2643743" name="London" pop="7421209" clusteriness="22.42713512" scaled_clusteriness="0.8246131001" clusteriness_rank="2" locality="0" distance-to-known="99999" scaled_known="0"/>
  <place rank="2" score="2.180323027" scaled_type="0.4" scaled_pop="0.9740949325" scaled_contained_by="0" scaled_contains="0" scaled_near="0" in-cc="GB" long="-0.30864" lat="51.49227" type="rgn" gazref="geonames:11591955" name="London" pop="7421209" clusteriness="24.40865284" scaled_clusteriness="0.8062280947" clusteriness_rank="3" locality="0" distance-to-known="99999" scaled_known="0"/>
  <place rank="3" score="1.959579017" scaled_type="0.6" scaled_pop="0.7094059475" scaled_contained_by="0" scaled_contains="0" scaled_near="0" in-cc="CA" long="-81.23304" lat="42.98339" type="ppl" gazref="geonames:6058560" name="London" pop="352395" clusteriness="50.07879391" scaled_clusteriness="0.6501730696" clusteriness_rank="5" locality="0" distance-to-known="99999" scaled_known="0"/>
  <place rank="4" score="1.741719752" scaled_type="0.4" scaled_pop="0.7094059475" scaled_contained_by="0" scaled_contains="0" scaled_near="0" in-cc="CA" long="-81.29975" lat="43.08339" type="rgn" gazref="geonames:6058559" name="London" pop="352395" clusteriness="54.37163475" scaled_clusteriness="0.6323138046" clusteriness_rank="6" locality="0" distance-to-known="99999" scaled_known="0"/>
  <place rank="5" score="1.463708254" scaled_type="0.6" scaled_pop="0" scaled_contained_by="0" scaled_contains="0" scaled_near="0" in-cc="US" long="-82.62934" lat="40.91033" type="ppl" gazref="geonames:5161176" name="London" clusteriness="18.73197162" scaled_clusteriness="0.8637082544" clusteriness_rank="1" locality="0" distance-to-known="99999" scaled_known="0"/>
  <place rank="6" score="1.311611655" scaled_type="0.6" scaled_pop="0" scaled_contained_by="0" scaled_contains="0" scaled_near="0" in-cc="US" long="-85.92026" lat="39.6256" type="ppl" gazref="geonames:4260673" name="London" clusteriness="37.73780969" scaled_clusteriness="0.711611655" clusteriness_rank="4" locality="0" distance-to-known="99999" scaled_known="0"/>
  <place rank="7" score="1.218784683" scaled_type="0.6" scaled_pop="0" scaled_contained_by="0" scaled_contains="0" scaled_near="0" in-cc="US" long="-89.01289" lat="43.04778" type="ppl" gazref="geonames:5260737" name="London" clusteriness="57.86695563" scaled_clusteriness="0.6187846826" clusteriness_rank="7" locality="0" distance-to-known="99999" scaled_known="0"/>
  <place rank="8" score="1.178861553" scaled_type="0.6" scaled_pop="0" scaled_contained_by="0" scaled_contains="0" scaled_near="0" in-cc="US" long="-87.08775" lat="31.29767" type="ppl" gazref="geonames:4073570" name="London" clusteriness="69.54675876" scaled_clusteriness="0.5788615528" clusteriness_rank="8" locality="0" distance-to-known="99999" scaled_known="0"/>
  <place rank="9" score="1.173313524" scaled_type="0.6" scaled_pop="0" scaled_contained_by="0" scaled_contains="0" scaled_near="0" in-cc="US" long="-84.08326" lat="37.12898" type="ppl" gazref="geonames:4298960" name="London" clusteriness="71.34654574" scaled_clusteriness="0.5733135243" clusteriness_rank="9" locality="0" distance-to-known="99999" scaled_known="0"/>
  <place rank="10" score="1.13938355" scaled_type="0.6" scaled_pop="0" scaled_contained_by="0" scaled_contains="0" scaled_near="0" in-cc="US" long="-83.44825" lat="39.88645" type="ppl" gazref="geonames:4517009" name="London" clusteriness="83.41283862" scaled_clusteriness="0.5393835496" clusteriness_rank="10" locality="0" distance-to-known="99999" scaled_known="0"/>
  <place rank="11" score="1.117898601" scaled_type="0.6" scaled_pop="0" scaled_contained_by="0" scaled_contains="0" scaled_near="0" in-cc="US" long="-81.36872" lat="38.19455" type="ppl" gazref="geonames:4812926" name="London" clusteriness="92.08794866" scaled_clusteriness="0.5178986006" clusteriness_rank="11" locality="0" distance-to-known="99999" scaled_known="0"/>
  <place rank="12" score="1.106163096" scaled_type="0.6" scaled_pop="0" scaled_contained_by="0" scaled_contains="0" scaled_near="0" in-cc="US" long="-93.25296" lat="35.32897" type="ppl" gazref="geonames:4119617" name="London" clusteriness="97.20168835" scaled_clusteriness="0.5061630958" clusteriness_rank="12" locality="0" distance-to-known="99999" scaled_known="0"/>
  <place rank="13" score="1.090618507" scaled_type="0.6" scaled_pop="0" scaled_contained_by="0" scaled_contains="0" scaled_near="0" in-cc="US" long="-93.0627" lat="43.52607" type="ppl" gazref="geonames:5035439" name="London" clusteriness="104.4150224" scaled_clusteriness="0.4906185069" clusteriness_rank="13" locality="0" distance-to-known="99999" scaled_known="0"/>
  <place rank="14" score="1.085386888" scaled_type="0.6" scaled_pop="0" scaled_contained_by="0" scaled_contains="0" scaled_near="0" in-cc="US" long="-94.94438" lat="32.23099" type="ppl" gazref="geonames:4707415" name="London" clusteriness="106.9611897" scaled_clusteriness="0.4853868876" clusteriness_rank="14" locality="0" distance-to-known="99999" scaled_known="0"/>
  <place rank="15" score="1.051526525" scaled_type="0.6" scaled_pop="0" scaled_contained_by="0" scaled_contains="0" scaled_near="0" in-cc="SL" long="-10.78731" lat="8.31068" type="ppl" gazref="geonames:2406961" name="London" clusteriness="125.0106321" scaled_clusteriness="0.4515265245" clusteriness_rank="15" locality="0" distance-to-known="99999" scaled_known="0"/>
  <place rank="16" score="1.040992985" scaled_type="0.6" scaled_pop="0" scaled_contained_by="0" scaled_contains="0" scaled_near="0" in-cc="US" long="-86.05024" lat="32.2732" type="ppl" gazref="geonames:4073571" name="London" clusteriness="131.224229" scaled_clusteriness="0.4409929851" clusteriness_rank="16" locality="0" distance-to-known="99999" scaled_known="0"/>
  <place rank="17" score="0.9688606511" scaled_type="0.6" scaled_pop="0" scaled_contained_by="0" scaled_contains="0" scaled_near="0" in-cc="US" long="-119.44318" lat="36.47606" type="ppl" gazref="geonames:5367815" name="London" clusteriness="182.9273731" scaled_clusteriness="0.3688606511" clusteriness_rank="17" locality="0" distance-to-known="99999" scaled_known="0"/>
  <place rank="18" score="0.8925628723" scaled_type="0.6" scaled_pop="0" scaled_contained_by="0" scaled_contains="0" scaled_near="0" in-cc="GQ" long="9.78934" lat="2.26815" type="ppl" gazref="geonames:2308696" name="London" clusteriness="259.9406829" scaled_clusteriness="0.2925628723" clusteriness_rank="18" locality="0" distance-to-known="99999" scaled_known="0"/>
  <place rank="19" score="0.8707162626" scaled_type="0.6" scaled_pop="0" scaled_contained_by="0" scaled_contains="0" scaled_near="0" in-cc="US" long="-99.57645" lat="30.67685" type="ppl" gazref="geonames:4707414" name="London" clusteriness="287.4534165" scaled_clusteriness="0.2707162626" clusteriness_rank="19" locality="0" distance-to-known="99999" scaled_known="0"/>
  <place rank="20" score="0.6" scaled_type="0.6" scaled_pop="0" scaled_contained_by="0" scaled_contains="0" scaled_near="0" in-cc="KI" long="-157.47502" lat="1.98487" type="ppl" gazref="geonames:4030939" name="London" clusteriness="2655.786703" scaled_clusteriness="0" clusteriness_rank="20" locality="0" distance-to-known="99999" scaled_known="0"/>
 </placename>
 <placename id="rb135" name="China">
  <place rank="1" score="2.730309185" scaled_type="1" scaled_pop="1.423209504" scaled_contained_by="0" scaled_contains="0" scaled_near="0" pop="1306313812" cc="CN" in-cc="CN" long="105" lat="35" type="country" gazref="geonames:1814991" name="China" clusteriness="243.1087762" scaled_clusteriness="0.3070996814" clusteriness_rank="15" locality="0" distance-to-known="99999" scaled_known="0"/>
  <place rank="2" score="1.521876197" scaled_type="0.6" scaled_pop="0" scaled_contained_by="0" scaled_contains="0" scaled_near="0" in-cc="PK" long="71.60649" lat="33.99548" type="ppl" gazref="geonames:1465120" name="Chīna Kili" clusteriness="14.33004671" scaled_clusteriness="0.9218761969" clusteriness_rank="1" locality="0" distance-to-known="99999" scaled_known="0"/>
  <place rank="3" score="1.471144692" scaled_type="0.6" scaled_pop="0" scaled_contained_by="0" scaled_contains="0" scaled_near="0" in-cc="PK" long="72.59694" lat="35.19233" type="ppl" gazref="geonames:1377601" name="China" clusteriness="18.10133539" scaled_clusteriness="0.8711446924" clusteriness_rank="2" locality="0" distance-to-known="99999" scaled_known="0"/>
  <place rank="4" score="1.338148176" scaled_type="0.6" scaled_pop="0" scaled_contained_by="0" scaled_contains="0" scaled_near="0" in-cc="PK" long="71.05917" lat="33.99319" type="ppl" gazref="geonames:1181113" name="China" clusteriness="33.39670714" scaled_clusteriness="0.7381481759" clusteriness_rank="3" locality="0" distance-to-known="99999" scaled_known="0"/>
  <place rank="5" score="1.269369926" scaled_type="0.6" scaled_pop="0" scaled_contained_by="0" scaled_contains="0" scaled_near="0" in-cc="PK" long="69.83542" lat="32.6434" type="ppl" gazref="geonames:1163734" name="China" clusteriness="45.84164026" scaled_clusteriness="0.6693699257" clusteriness_rank="5" locality="0" distance-to-known="99999" scaled_known="0"/>
  <place rank="6" score="1.256814324" scaled_type="0.6" scaled_pop="0" scaled_contained_by="0" scaled_contains="0" scaled_near="0" in-cc="US" long="-85.33829" lat="38.82589" type="ppl" gazref="geonames:4255750" name="China" clusteriness="48.57036327" scaled_clusteriness="0.6568143241" clusteriness_rank="6" locality="0" distance-to-known="99999" scaled_known="0"/>
  <place rank="7" score="1.250159671" scaled_type="0.6" scaled_pop="0" scaled_contained_by="0" scaled_contains="0" scaled_near="0" in-cc="US" long="-69.51726" lat="44.47868" type="ppl" gazref="geonames:4960817" name="China" clusteriness="50.081884" scaled_clusteriness="0.650159671" clusteriness_rank="7" locality="0" distance-to-known="99999" scaled_known="0"/>
  <place rank="8" score="1.230562641" scaled_type="0.6" scaled_pop="0" scaled_contained_by="0" scaled_contains="0" scaled_near="0" in-cc="US" long="-75.40018" lat="42.14481" type="ppl" gazref="geonames:5112537" name="China" clusteriness="54.8118826" scaled_clusteriness="0.6305626406" clusteriness_rank="8" locality="0" distance-to-known="99999" scaled_known="0"/>
  <place rank="9" score="1.188745747" scaled_type="0.6" scaled_pop="0" scaled_contained_by="0" scaled_contains="0" scaled_near="0" in-cc="PK" long="66.82886" lat="31.02166" type="ppl" gazref="geonames:1375522" name="China" clusteriness="66.4520688" scaled_clusteriness="0.588745747" clusteriness_rank="10" locality="0" distance-to-known="99999" scaled_known="0"/>
  <place rank="10" score="1.170990425" scaled_type="0.6" scaled_pop="0" scaled_contained_by="0" scaled_contains="0" scaled_near="0" in-cc="CU" long="-81.66778" lat="22.96139" type="ppl" gazref="geonames:3564285" name="China" clusteriness="72.1139276" scaled_clusteriness="0.5709904252" clusteriness_rank="11" locality="0" distance-to-known="99999" scaled_known="0"/>
  <place rank="11" score="1.102565069" scaled_type="0.6" scaled_pop="0" scaled_contained_by="0" scaled_contains="0" scaled_near="0" in-cc="AO" long="14.23333" lat="-12.5" type="ppl" gazref="geonames:3349762" name="China" clusteriness="98.82569146" scaled_clusteriness="0.5025650692" clusteriness_rank="12" locality="0" distance-to-known="99999" scaled_known="0"/>
  <place rank="12" score="1.099170233" scaled_type="0.4" scaled_pop="0" scaled_contained_by="0" scaled_contains="0" scaled_near="0" in-cc="PK" long="69.79481" lat="32.78148" type="mtn" gazref="geonames:1365513" name="China" clusteriness="39.96313356" scaled_clusteriness="0.6991702328" clusteriness_rank="4" locality="0" distance-to-known="99999" scaled_known="0"/>
  <place rank="13" score="1.084241445" scaled_type="0.6" scaled_pop="0" scaled_contained_by="0" scaled_contains="0" scaled_near="0" in-cc="US" long="-94.33574" lat="30.04799" type="ppl" gazref="geonames:4680774" name="China" clusteriness="107.5268961" scaled_clusteriness="0.4842414453" clusteriness_rank="13" locality="0" distance-to-known="99999" scaled_known="0"/>
  <place rank="14" score="1.057969378" scaled_type="0.6" scaled_pop="0" scaled_contained_by="0" scaled_contains="0" scaled_near="0" in-cc="US" long="-91.89959" lat="36.61201" type="ppl" gazref="geonames:4381123" name="China" clusteriness="121.3559971" scaled_clusteriness="0.4579693785" clusteriness_rank="14" locality="0" distance-to-known="99999" scaled_known="0"/>
  <place rank="15" score="1.000511208" scaled_type="0.4" scaled_pop="0" scaled_contained_by="0" scaled_contains="0" scaled_near="0" in-cc="PK" long="68.86161" lat="30.57901" type="rgn" gazref="geonames:1396616" name="China" clusteriness="62.94736922" scaled_clusteriness="0.6005112079" clusteriness_rank="9" locality="0" distance-to-known="99999" scaled_known="0"/>
  <place rank="16" score="0.8925245592" scaled_type="0.6" scaled_pop="0" scaled_contained_by="0" scaled_contains="0" scaled_near="0" in-cc="MX" long="-90.49595" lat="19.76993" type="ppl" gazref="geonames:3530840" name="Chiná" clusteriness="259.9865503" scaled_clusteriness="0.2925245592" clusteriness_rank="16" locality="0" distance-to-known="99999" scaled_known="0"/>
  <place rank="17" score="0.876694997" scaled_type="0.6" scaled_pop="0" scaled_contained_by="0" scaled_contains="0" scaled_near="0" in-cc="RU" long="112.48333" lat="54.4" type="ppl" gazref="geonames:2025376" name="China" clusteriness="279.6468978" scaled_clusteriness="0.276694997" clusteriness_rank="17" locality="0" distance-to-known="99999" scaled_known="0"/>
  <place rank="18" score="0.7844880312" scaled_type="0.6" scaled_pop="0" scaled_contained_by="0" scaled_contains="0" scaled_near="0" in-cc="MX" long="-99.23454" lat="25.69997" type="ppl" gazref="geonames:3530839" name="China" clusteriness="427.5864533" scaled_clusteriness="0.1844880312" clusteriness_rank="18" locality="0" distance-to-known="99999" scaled_known="0"/>
  <place rank="19" score="0.6407217388" scaled_type="0.6" scaled_pop="0" scaled_contained_by="0" scaled_contains="0" scaled_near="0" in-cc="JP" long="127.81778" lat="26.18361" type="ppl" gazref="geonames:1864567" name="China" clusteriness="829.003802" scaled_clusteriness="0.04072173882" clusteriness_rank="20" locality="0" distance-to-known="99999" scaled_known="0"/>
  <place rank="20" score="0.5775571726" scaled_type="0.4" scaled_pop="0" scaled_contained_by="0" scaled_contains="0" scaled_near="0" in-cc="MX" long="-99.00457" lat="25.51224" type="civil" gazref="geonames:8582434" name="China" clusteriness="441.4542017" scaled_clusteriness="0.1775571726" clusteriness_rank="19" locality="0" distance-to-known="99999" scaled_known="0"/>
 </placename>
 <placename id="rb136" name="Asia">
  <place rank="1" score="2.894513632" scaled_type="1" scaled_pop="1.517743956" scaled_contained_by="0" scaled_contains="0" scaled_near="0" pop="3879000000" in-cc="" long="89.29688" lat="29.84064" type="continent" gazref="geonames:6255147" name="Asia" clusteriness="176.3845929" scaled_clusteriness="0.3767696765" clusteriness_rank="9" locality="0" distance-to-known="99999" scaled_known="0"/>
  <place rank="2" score="1.444582167" scaled_type="0.6" scaled_pop="0" scaled_contained_by="0" scaled_contains="0" scaled_near="0" in-cc="IN" long="85.19953" lat="25.38954" type="ppl" gazref="geonames:11012428" name="Asia" clusteriness="20.45670421" scaled_clusteriness="0.8445821672" clusteriness_rank="1" locality="0" distance-to-known="99999" scaled_known="0"/>
  <place rank="3" score="1.403401687" scaled_type="0.6" scaled_pop="0.4743834279" scaled_contained_by="0" scaled_contains="0" scaled_near="0" in-cc="PH" long="122.5164" lat="9.5506" type="ppl" gazref="geonames:1730097" name="Asia" pop="23546" clusteriness="219.7675066" scaled_clusteriness="0.3290182596" clusteriness_rank="12" locality="0" distance-to-known="99999" scaled_known="0"/>
  <place rank="4" score="1.3261375" scaled_type="0.6" scaled_pop="0" scaled_contained_by="0" scaled_contains="0" scaled_near="0" in-cc="IN" long="84.14541" lat="25.2195" type="ppl" gazref="geonames:10944200" name="Asia" clusteriness="35.29596017" scaled_clusteriness="0.7261374997" clusteriness_rank="2" locality="0" distance-to-known="99999" scaled_known="0"/>
  <place rank="5" score="1.244714502" scaled_type="0.6" scaled_pop="0" scaled_contained_by="0" scaled_contains="0" scaled_near="0" in-cc="US" long="-94.86938" lat="30.99824" type="ppl" gazref="geonames:4671486" name="Asia" clusteriness="51.35361205" scaled_clusteriness="0.644714502" clusteriness_rank="3" locality="0" distance-to-known="99999" scaled_known="0"/>
  <place rank="6" score="1.198563493" scaled_type="0.6" scaled_pop="0" scaled_contained_by="0" scaled_contains="0" scaled_near="0" in-cc="US" long="-86.09026" lat="35.24397" type="ppl" gazref="geonames:4603264" name="Asia" clusteriness="63.51451907" scaled_clusteriness="0.598563493" clusteriness_rank="4" locality="0" distance-to-known="99999" scaled_known="0"/>
  <place rank="7" score="1.104571278" scaled_type="0.6" scaled_pop="0" scaled_contained_by="0" scaled_contains="0" scaled_near="0" in-cc="IT" long="11.34058" lat="44.71496" type="ppl" gazref="geonames:8981743" name="Asia" clusteriness="97.91685223" scaled_clusteriness="0.5045712782" clusteriness_rank="6" locality="0" distance-to-known="99999" scaled_known="0"/>
  <place rank="8" score="1.080193378" scaled_type="0.6" scaled_pop="0" scaled_contained_by="0" scaled_contains="0" scaled_near="0" in-cc="BD" long="91.94482" lat="22.26652" type="ppl" gazref="geonames:6414111" name="Āsia" clusteriness="109.5502175" scaled_clusteriness="0.4801933778" clusteriness_rank="7" locality="0" distance-to-known="99999" scaled_known="0"/>
  <place rank="9" score="0.9708020362" scaled_type="0.6" scaled_pop="0" scaled_contained_by="0" scaled_contains="0" scaled_near="0" in-cc="NG" long="4.04394" lat="7.9622" type="ppl" gazref="geonames:12490587" name="Asia" clusteriness="181.2992166" scaled_clusteriness="0.3708020362" clusteriness_rank="10" locality="0" distance-to-known="99999" scaled_known="0"/>
  <place rank="10" score="0.9145939359" scaled_type="0.4" scaled_pop="0" scaled_contained_by="0" scaled_contains="0" scaled_near="0" in-cc="PK" long="63.94325" lat="25.61712" type="mtn" gazref="geonames:11069361" name="Asia" clusteriness="93.50011138" scaled_clusteriness="0.5145939359" clusteriness_rank="5" locality="0" distance-to-known="99999" scaled_known="0"/>
  <place rank="11" score="0.879106147" scaled_type="0.4" scaled_pop="0" scaled_contained_by="0" scaled_contains="0" scaled_near="0" in-cc="BD" long="91.94478" lat="22.26032" type="civil" gazref="geonames:11286036" name="Asia" clusteriness="110.1000981" scaled_clusteriness="0.479106147" clusteriness_rank="8" locality="0" distance-to-known="99999" scaled_known="0"/>
  <place rank="12" score="0.8769182889" scaled_type="0.6" scaled_pop="0" scaled_contained_by="0" scaled_contains="0" scaled_near="0" in-cc="CM" long="13.11667" lat="3.63333" type="ppl" gazref="geonames:2235475" name="Asia" clusteriness="279.3594855" scaled_clusteriness="0.2769182889" clusteriness_rank="14" locality="0" distance-to-known="99999" scaled_known="0"/>
  <place rank="13" score="0.8615044315" scaled_type="0.6" scaled_pop="0" scaled_contained_by="0" scaled_contains="0" scaled_near="0" in-cc="GQ" long="11.13415" lat="1.50036" type="ppl" gazref="geonames:2310254" name="Asia" clusteriness="299.9101313" scaled_clusteriness="0.2615044315" clusteriness_rank="16" locality="0" distance-to-known="99999" scaled_known="0"/>
  <place rank="14" score="0.8326480968" scaled_type="0.6" scaled_pop="0" scaled_contained_by="0" scaled_contains="0" scaled_near="0" in-cc="GQ" long="11.24662" lat="1.09343" type="ppl" gazref="geonames:2310255" name="Asiá" clusteriness="342.5340949" scaled_clusteriness="0.2326480968" clusteriness_rank="17" locality="0" distance-to-known="99999" scaled_known="0"/>
  <place rank="15" score="0.8004801585" scaled_type="0.6" scaled_pop="0" scaled_contained_by="0" scaled_contains="0" scaled_near="0" in-cc="PE" long="-77.37854" lat="-8.15344" type="ppl" gazref="geonames:6384918" name="Asia" clusteriness="397.2278439" scaled_clusteriness="0.2004801585" clusteriness_rank="18" locality="0" distance-to-known="99999" scaled_known="0"/>
  <place rank="16" score="0.762388979" scaled_type="0.4" scaled_pop="0" scaled_contained_by="0" scaled_contains="0" scaled_near="0" in-cc="MX" long="-91.31636" lat="16.95003" type="rgn" gazref="geonames:9628308" name="Asia" clusteriness="188.461239" scaled_clusteriness="0.362388979" clusteriness_rank="11" locality="0" distance-to-known="99999" scaled_known="0"/>
  <place rank="17" score="0.7201669079" scaled_type="0.6" scaled_pop="0" scaled_contained_by="0" scaled_contains="0" scaled_near="0" in-cc="CO" long="-75.85" lat="5.06667" type="ppl" gazref="geonames:3689475" name="Asia" clusteriness="574.9978014" scaled_clusteriness="0.1201669079" clusteriness_rank="20" locality="0" distance-to-known="99999" scaled_known="0"/>
  <place rank="18" score="0.6884613954" scaled_type="0.4" scaled_pop="0" scaled_contained_by="0" scaled_contains="0" scaled_near="0" in-cc="TR" long="27.34353" lat="37.93682" type="civil" gazref="geonames:8378482" name="Asia (Roman province)" clusteriness="264.8971033" scaled_clusteriness="0.2884613954" clusteriness_rank="13" locality="0" distance-to-known="99999" scaled_known="0"/>
  <place rank="19" score="0.6742645443" scaled_type="0.4" scaled_pop="0" scaled_contained_by="0" scaled_contains="0" scaled_near="0" in-cc="NE" long="7.80128" lat="14.58988" type="mtn" gazref="geonames:6812480" name="Asia" clusteriness="282.7944692" scaled_clusteriness="0.2742645443" clusteriness_rank="15" locality="0" distance-to-known="99999" scaled_known="0"/>
  <place rank="20" score="0.5645299888" scaled_type="0.4" scaled_pop="0" scaled_contained_by="0" scaled_contains="0" scaled_near="0" in-cc="PE" long="-76.51124" lat="-12.79673" type="civil" gazref="geonames:8350058" name="Asia" clusteriness="468.7486419" scaled_clusteriness="0.1645299888" clusteriness_rank="19" locality="0" distance-to-known="99999" scaled_known="0"/>
 </placename>
 <placename id="rb142" name="Baluchistan">
  <place rank="1" score="1.411127221" scaled_type="0.8" scaled_pop="0" scaled_contained_by="0" scaled_contains="0" scaled_near="0" in-cc="PK" long="65.64355" lat="28.47849" type="civila" gazref="geonames:1183606" name="Balochistan" clusteriness="59.94397785" scaled_clusteriness="0.6111272205" clusteriness_rank="1" locality="0" distance-to-known="99999" scaled_known="0"/>
  <place rank="2" score="0.9304467643" scaled_type="0.4" scaled_pop="0" scaled_contained_by="0" scaled_contains="0" scaled_near="0" in-cc="PK" long="64.28238" lat="28.93996" type="mtn" gazref="geonames:9062343" name="Baluchistan[" clusteriness="86.91734891" scaled_clusteriness="0.5304467643" clusteriness_rank="2" locality="0" distance-to-known="99999" scaled_known="0"/>
  <place rank="3" score="0.919305172" scaled_type="0.4" scaled_pop="0" scaled_contained_by="0" scaled_contains="0" scaled_near="0" in-cc="AF" long="63" lat="28" type="rgn" gazref="geonames:1161739" name="Baluchistan" clusteriness="91.49337665" scaled_clusteriness="0.519305172" clusteriness_rank="3" locality="0" distance-to-known="99999" scaled_known="0"/>
 </placename>
 <placename id="rb143" name="Burma">
  <place rank="1" score="1.425716477" scaled_type="0.6" scaled_pop="0" scaled_contained_by="0" scaled_contains="0" scaled_near="0" in-cc="NP" long="83.60659" lat="28.15712" type="ppl" gazref="geonames:7963261" name="Burma" clusteriness="22.31346657" scaled_clusteriness="0.8257164767" clusteriness_rank="2" locality="0" distance-to-known="99999" scaled_known="0"/>
  <place rank="2" score="1.258082654" scaled_type="1" scaled_pop="0" scaled_contained_by="0" scaled_contains="0" scaled_near="0" in-cc="MM" long="96" lat="21" type="country" gazref="geonames:1327865" name="Myanmar" clusteriness="304.6735066" scaled_clusteriness="0.2580826544" clusteriness_rank="19" locality="0" distance-to-known="99999" scaled_known="0"/>
  <place rank="3" score="1.205282152" scaled_type="0.6" scaled_pop="0" scaled_contained_by="0" scaled_contains="0" scaled_near="0" in-cc="JO" long="35.78507" lat="32.2193" type="ppl" gazref="geonames:249849" name="Burmā" clusteriness="61.57943447" scaled_clusteriness="0.6052821519" clusteriness_rank="3" locality="0" distance-to-known="99999" scaled_known="0"/>
  <place rank="4" score="1.200426845" scaled_type="0.6" scaled_pop="0" scaled_contained_by="0" scaled_contains="0" scaled_near="0" in-cc="US" long="-79.43282" lat="41.12173" type="ppl" gazref="geonames:5189757" name="Five Points" clusteriness="62.97182943" scaled_clusteriness="0.6004268448" clusteriness_rank="4" locality="0" distance-to-known="99999" scaled_known="0"/>
  <place rank="5" score="1.161477787" scaled_type="0.6" scaled_pop="0" scaled_contained_by="0" scaled_contains="0" scaled_near="0" in-cc="AF" long="69.66181" lat="37.14923" type="ppl" gazref="geonames:1467320" name="Būrmah" clusteriness="75.34326326" scaled_clusteriness="0.5614777868" clusteriness_rank="5" locality="0" distance-to-known="99999" scaled_known="0"/>
  <place rank="6" score="1.16092459" scaled_type="0.6" scaled_pop="0" scaled_contained_by="0" scaled_contains="0" scaled_near="0" in-cc="GY" long="-57.75908" lat="6.4738" type="ppl" gazref="geonames:8310306" name="Burma" clusteriness="75.53544981" scaled_clusteriness="0.5609245901" clusteriness_rank="6" locality="0" distance-to-known="99999" scaled_known="0"/>
  <place rank="7" score="1.160531974" scaled_type="0.6" scaled_pop="0" scaled_contained_by="0" scaled_contains="0" scaled_near="0" in-cc="AF" long="68.2907" lat="35.95497" type="ppl" gazref="geonames:1146107" name="Burmah" clusteriness="75.67214616" scaled_clusteriness="0.5605319743" clusteriness_rank="7" locality="0" distance-to-known="99999" scaled_known="0"/>
  <place rank="8" score="1.157081207" scaled_type="0.6" scaled_pop="0" scaled_contained_by="0" scaled_contains="0" scaled_near="0" in-cc="GE" long="44.83247" lat="41.21659" type="ppl" gazref="geonames:12109861" name="Burma" clusteriness="76.88428619" scaled_clusteriness="0.5570812067" clusteriness_rank="8" locality="0" distance-to-known="99999" scaled_known="0"/>
  <place rank="9" score="1.075779478" scaled_type="0.6" scaled_pop="0" scaled_contained_by="0" scaled_contains="0" scaled_near="0" in-cc="IR" long="48.16667" lat="34.03333" type="ppl" gazref="geonames:140853" name="Berahmā" clusteriness="111.7998045" scaled_clusteriness="0.4757794779" clusteriness_rank="10" locality="0" distance-to-known="99999" scaled_known="0"/>
